@OM Digital Solutions/+0000/+0000
$GPGGA,075202.5,5628.8442,N,00616.0710,W,1,00,00.00,0.0,M,0,M,0,*53
$GPRMC,075202,A,5628.8442,N,00616.0710,W,000.0,000.0,130725,00,*b
$GPGGA,075249.5,5628.8486,N,00616.0805,W,1,00,00.00,0.0,M,0,M,0,*5f
$GPRMC,075249,A,5628.8486,N,00616.0805,W,000.0,000.0,130725,00,*7
$GPGGA,075324.0,5628.8407,N,00616.0688,W,1,00,00.00,0.0,M,0,M,0,*52
$GPRMC,075324,A,5628.8407,N,00616.0688,W,000.0,000.0,130725,00,*f
$GPGGA,075729.2,5628.8366,N,00616.0588,W,1,00,00.00,0.0,M,0,M,0,*5a
$GPRMC,075729,A,5628.8366,N,00616.0588,W,000.0,000.0,130725,00,*5
$GPGGA,080029.1,5628.8314,N,00616.0544,W,1,00,00.00,0.0,M,0,M,0,*51
$GPRMC,080029,A,5628.8314,N,00616.0544,W,000.0,000.0,130725,00,*d
$GPGGA,080119.1,5628.8263,N,00616.0674,W,1,00,00.00,0.0,M,0,M,0,*52
$GPRMC,080119,A,5628.8263,N,00616.0674,W,000.0,000.0,130725,00,*e
$GPGGA,080129.2,5628.8206,N,00616.0776,W,1,00,00.00,0.0,M,0,M,0,*52
$GPRMC,080129,A,5628.8206,N,00616.0776,W,000.0,000.0,130725,00,*d
$GPGGA,080139.1,5628.8133,N,00616.0922,W,1,00,00.00,0.0,M,0,M,0,*5a
$GPRMC,080139,A,5628.8133,N,00616.0922,W,000.0,000.0,130725,00,*6
$GPGGA,080159.1,5628.7944,N,00616.1131,W,1,00,00.00,0.0,M,0,M,0,*50
$GPRMC,080159,A,5628.7944,N,00616.1131,W,000.0,000.0,130725,00,*c
$GPGGA,080209.2,5628.7839,N,00616.1302,W,1,00,00.00,0.0,M,0,M,0,*5c
$GPRMC,080209,A,5628.7839,N,00616.1302,W,000.0,000.0,130725,00,*3
$GPGGA,080229.1,5628.7661,N,00616.1689,W,1,00,00.00,0.0,M,0,M,0,*58
$GPRMC,080229,A,5628.7661,N,00616.1689,W,000.0,000.0,130725,00,*4
$GPGGA,080239.1,5628.7585,N,00616.1871,W,1,00,00.00,0.0,M,0,M,0,*59
$GPRMC,080239,A,5628.7585,N,00616.1871,W,000.0,000.0,130725,00,*5
$GPGGA,080249.2,5628.7474,N,00616.2012,W,1,00,00.00,0.0,M,0,M,0,*5c
$GPRMC,080249,A,5628.7474,N,00616.2012,W,000.0,000.0,130725,00,*3
$GPGGA,080259.2,5628.7354,N,00616.2134,W,1,00,00.00,0.0,M,0,M,0,*5d
$GPRMC,080259,A,5628.7354,N,00616.2134,W,000.0,000.0,130725,00,*2
$GPGGA,080309.1,5628.7233,N,00616.2249,W,1,00,00.00,0.0,M,0,M,0,*53
$GPRMC,080309,A,5628.7233,N,00616.2249,W,000.0,000.0,130725,00,*f
$GPGGA,080319.1,5628.7100,N,00616.2313,W,1,00,00.00,0.0,M,0,M,0,*5f
$GPRMC,080319,A,5628.7100,N,00616.2313,W,000.0,000.0,130725,00,*3
$GPGGA,080349.2,5628.6718,N,00616.2472,W,1,00,00.00,0.0,M,0,M,0,*57
$GPRMC,080349,A,5628.6718,N,00616.2472,W,000.0,000.0,130725,00,*8
$GPGGA,080409.1,5628.6440,N,00616.2502,W,1,00,00.00,0.0,M,0,M,0,*5f
$GPRMC,080409,A,5628.6440,N,00616.2502,W,000.0,000.0,130725,00,*3
$GPGGA,080419.1,5628.6296,N,00616.2524,W,1,00,00.00,0.0,M,0,M,0,*57
$GPRMC,080419,A,5628.6296,N,00616.2524,W,000.0,000.0,130725,00,*b
$GPGGA,080459.1,5628.5657,N,00616.2772,W,1,00,00.00,0.0,M,0,M,0,*58
$GPRMC,080459,A,5628.5657,N,00616.2772,W,000.0,000.0,130725,00,*4
$GPGGA,080509.2,5628.5498,N,00616.2849,W,1,00,00.00,0.0,M,0,M,0,*59
$GPRMC,080509,A,5628.5498,N,00616.2849,W,000.0,000.0,130725,00,*6
$GPGGA,080519.2,5628.5340,N,00616.2889,W,1,00,00.00,0.0,M,0,M,0,*56
$GPRMC,080519,A,5628.5340,N,00616.2889,W,000.0,000.0,130725,00,*9
$GPGGA,080529.2,5628.5178,N,00616.2922,W,1,00,00.00,0.0,M,0,M,0,*5c
$GPRMC,080529,A,5628.5178,N,00616.2922,W,000.0,000.0,130725,00,*3
$GPGGA,080548.9,5628.5025,N,00616.2966,W,1,00,00.00,0.0,M,0,M,0,*59
$GPRMC,080548,A,5628.5025,N,00616.2966,W,000.0,000.0,130725,00,*d
$GPGGA,080554.0,5628.4896,N,00616.2982,W,1,00,00.00,0.0,M,0,M,0,*56
$GPRMC,080554,A,5628.4896,N,00616.2982,W,000.0,000.0,130725,00,*b
$GPGGA,080559.2,5628.4726,N,00616.2997,W,1,00,00.00,0.0,M,0,M,0,*59
$GPRMC,080559,A,5628.4726,N,00616.2997,W,000.0,000.0,130725,00,*6
$GPGGA,080609.2,5628.4550,N,00616.2994,W,1,00,00.00,0.0,M,0,M,0,*5f
$GPRMC,080609,A,5628.4550,N,00616.2994,W,000.0,000.0,130725,00,*0
$GPGGA,080619.2,5628.4360,N,00616.3027,W,1,00,00.00,0.0,M,0,M,0,*5b
$GPRMC,080619,A,5628.4360,N,00616.3027,W,000.0,000.0,130725,00,*4
$GPGGA,080629.2,5628.4194,N,00616.3046,W,1,00,00.00,0.0,M,0,M,0,*56
$GPRMC,080629,A,5628.4194,N,00616.3046,W,000.0,000.0,130725,00,*9
$GPGGA,080639.2,5628.4014,N,00616.3050,W,1,00,00.00,0.0,M,0,M,0,*59
$GPRMC,080639,A,5628.4014,N,00616.3050,W,000.0,000.0,130725,00,*6
$GPGGA,080649.1,5628.3824,N,00616.3057,W,1,00,00.00,0.0,M,0,M,0,*56
$GPRMC,080649,A,5628.3824,N,00616.3057,W,000.0,000.0,130725,00,*a
$GPGGA,080659.1,5628.3635,N,00616.3052,W,1,00,00.00,0.0,M,0,M,0,*5c
$GPRMC,080659,A,5628.3635,N,00616.3052,W,000.0,000.0,130725,00,*0
$GPGGA,080709.1,5628.3446,N,00616.3050,W,1,00,00.00,0.0,M,0,M,0,*5c
$GPRMC,080709,A,5628.3446,N,00616.3050,W,000.0,000.0,130725,00,*0
$GPGGA,080719.1,5628.3259,N,00616.3056,W,1,00,00.00,0.0,M,0,M,0,*53
$GPRMC,080719,A,5628.3259,N,00616.3056,W,000.0,000.0,130725,00,*f
$GPGGA,080729.2,5628.3078,N,00616.3090,W,1,00,00.00,0.0,M,0,M,0,*58
$GPRMC,080729,A,5628.3078,N,00616.3090,W,000.0,000.0,130725,00,*7
$GPGGA,080739.2,5628.2903,N,00616.3139,W,1,00,00.00,0.0,M,0,M,0,*5f
$GPRMC,080739,A,5628.2903,N,00616.3139,W,000.0,000.0,130725,00,*0
$GPGGA,080749.2,5628.2718,N,00616.3151,W,1,00,00.00,0.0,M,0,M,0,*52
$GPRMC,080749,A,5628.2718,N,00616.3151,W,000.0,000.0,130725,00,*d
$GPGGA,080759.1,5628.2538,N,00616.3178,W,1,00,00.00,0.0,M,0,M,0,*5b
$GPRMC,080759,A,5628.2538,N,00616.3178,W,000.0,000.0,130725,00,*7
$GPGGA,080809.1,5628.2352,N,00616.3196,W,1,00,00.00,0.0,M,0,M,0,*5b
$GPRMC,080809,A,5628.2352,N,00616.3196,W,000.0,000.0,130725,00,*7
$GPGGA,080819.2,5628.2165,N,00616.3219,W,1,00,00.00,0.0,M,0,M,0,*5b
$GPRMC,080819,A,5628.2165,N,00616.3219,W,000.0,000.0,130725,00,*4
$GPGGA,080829.1,5628.1983,N,00616.3242,W,1,00,00.00,0.0,M,0,M,0,*56
$GPRMC,080829,A,5628.1983,N,00616.3242,W,000.0,000.0,130725,00,*a
$GPGGA,080839.2,5628.1822,N,00616.3369,W,1,00,00.00,0.0,M,0,M,0,*56
$GPRMC,080839,A,5628.1822,N,00616.3369,W,000.0,000.0,130725,00,*9
$GPGGA,080849.1,5628.1664,N,00616.3546,W,1,00,00.00,0.0,M,0,M,0,*55
$GPRMC,080849,A,5628.1664,N,00616.3546,W,000.0,000.0,130725,00,*9
$GPGGA,080859.2,5628.1496,N,00616.3705,W,1,00,00.00,0.0,M,0,M,0,*5d
$GPRMC,080859,A,5628.1496,N,00616.3705,W,000.0,000.0,130725,00,*2
$GPGGA,080909.2,5628.1337,N,00616.3874,W,1,00,00.00,0.0,M,0,M,0,*5c
$GPRMC,080909,A,5628.1337,N,00616.3874,W,000.0,000.0,130725,00,*3
$GPGGA,080919.1,5628.1174,N,00616.4057,W,1,00,00.00,0.0,M,0,M,0,*55
$GPRMC,080919,A,5628.1174,N,00616.4057,W,000.0,000.0,130725,00,*9
$GPGGA,080929.2,5628.1015,N,00616.4228,W,1,00,00.00,0.0,M,0,M,0,*59
$GPRMC,080929,A,5628.1015,N,00616.4228,W,000.0,000.0,130725,00,*6
$GPGGA,080939.1,5628.0855,N,00616.4403,W,1,00,00.00,0.0,M,0,M,0,*59
$GPRMC,080939,A,5628.0855,N,00616.4403,W,000.0,000.0,130725,00,*5
$GPGGA,080949.1,5628.0698,N,00616.4589,W,1,00,00.00,0.0,M,0,M,0,*52
$GPRMC,080949,A,5628.0698,N,00616.4589,W,000.0,000.0,130725,00,*e
$GPGGA,080959.1,5628.0545,N,00616.4785,W,1,00,00.00,0.0,M,0,M,0,*5e
$GPRMC,080959,A,5628.0545,N,00616.4785,W,000.0,000.0,130725,00,*2
$GPGGA,081009.2,5628.0368,N,00616.4994,W,1,00,00.00,0.0,M,0,M,0,*57
$GPRMC,081009,A,5628.0368,N,00616.4994,W,000.0,000.0,130725,00,*8
$GPGGA,081019.2,5628.0181,N,00616.5223,W,1,00,00.00,0.0,M,0,M,0,*55
$GPRMC,081019,A,5628.0181,N,00616.5223,W,000.0,000.0,130725,00,*a
$GPGGA,081029.2,5627.9997,N,00616.5467,W,1,00,00.00,0.0,M,0,M,0,*59
$GPRMC,081029,A,5627.9997,N,00616.5467,W,000.0,000.0,130725,00,*6
$GPGGA,081039.2,5627.9799,N,00616.5706,W,1,00,00.00,0.0,M,0,M,0,*5c
$GPRMC,081039,A,5627.9799,N,00616.5706,W,000.0,000.0,130725,00,*3
$GPGGA,081049.2,5627.9585,N,00616.5927,W,1,00,00.00,0.0,M,0,M,0,*59
$GPRMC,081049,A,5627.9585,N,00616.5927,W,000.0,000.0,130725,00,*6
$GPGGA,081059.1,5627.9376,N,00616.6168,W,1,00,00.00,0.0,M,0,M,0,*51
$GPRMC,081059,A,5627.9376,N,00616.6168,W,000.0,000.0,130725,00,*d
$GPGGA,081116.3,5627.9178,N,00616.6399,W,1,00,00.00,0.0,M,0,M,0,*59
$GPRMC,081116,A,5627.9178,N,00616.6399,W,000.0,000.0,130725,00,*7
$GPGGA,081129.1,5627.8788,N,00616.6910,W,1,00,00.00,0.0,M,0,M,0,*54
$GPRMC,081129,A,5627.8788,N,00616.6910,W,000.0,000.0,130725,00,*8
$GPGGA,081139.1,5627.8565,N,00616.7163,W,1,00,00.00,0.0,M,0,M,0,*59
$GPRMC,081139,A,5627.8565,N,00616.7163,W,000.0,000.0,130725,00,*5
$GPGGA,081156.3,5627.8361,N,00616.7388,W,1,00,00.00,0.0,M,0,M,0,*57
$GPRMC,081156,A,5627.8361,N,00616.7388,W,000.0,000.0,130725,00,*9
$GPGGA,081208.5,5627.8189,N,00616.7594,W,1,00,00.00,0.0,M,0,M,0,*56
$GPRMC,081208,A,5627.8189,N,00616.7594,W,000.0,000.0,130725,00,*e
$GPGGA,081219.2,5627.7740,N,00616.8114,W,1,00,00.00,0.0,M,0,M,0,*5e
$GPRMC,081219,A,5627.7740,N,00616.8114,W,000.0,000.0,130725,00,*1
$GPGGA,081225.2,5627.7590,N,00616.8313,W,1,00,00.00,0.0,M,0,M,0,*5b
$GPRMC,081225,A,5627.7590,N,00616.8313,W,000.0,000.0,130725,00,*4
$GPGGA,081230.3,5627.7482,N,00616.8426,W,1,00,00.00,0.0,M,0,M,0,*5d
$GPRMC,081230,A,5627.7482,N,00616.8426,W,000.0,000.0,130725,00,*3
$GPGGA,081240.0,5627.7344,N,00616.8586,W,1,00,00.00,0.0,M,0,M,0,*5f
$GPRMC,081240,A,5627.7344,N,00616.8586,W,000.0,000.0,130725,00,*2
$GPGGA,081245.1,5627.7227,N,00616.8717,W,1,00,00.00,0.0,M,0,M,0,*55
$GPRMC,081245,A,5627.7227,N,00616.8717,W,000.0,000.0,130725,00,*9
$GPGGA,081252.4,5627.7135,N,00616.8933,W,1,00,00.00,0.0,M,0,M,0,*5e
$GPRMC,081252,A,5627.7135,N,00616.8933,W,000.0,000.0,130725,00,*7
$GPGGA,081300.6,5627.6961,N,00616.9074,W,1,00,00.00,0.0,M,0,M,0,*59
$GPRMC,081300,A,5627.6961,N,00616.9074,W,000.0,000.0,130725,00,*2
$GPGGA,081316.3,5627.6598,N,00616.9500,W,1,00,00.00,0.0,M,0,M,0,*57
$GPRMC,081316,A,5627.6598,N,00616.9500,W,000.0,000.0,130725,00,*9
$GPGGA,081326.3,5627.6384,N,00616.9756,W,1,00,00.00,0.0,M,0,M,0,*5e
$GPRMC,081326,A,5627.6384,N,00616.9756,W,000.0,000.0,130725,00,*0
$GPGGA,081342.8,5627.6007,N,00617.0169,W,1,00,00.00,0.0,M,0,M,0,*5d
$GPRMC,081342,A,5627.6007,N,00617.0169,W,000.0,000.0,130725,00,*8
$GPGGA,081352.6,5627.5902,N,00617.0283,W,1,00,00.00,0.0,M,0,M,0,*5a
$GPRMC,081352,A,5627.5902,N,00617.0283,W,000.0,000.0,130725,00,*1
$GPGGA,081402.6,5627.5718,N,00617.0556,W,1,00,00.00,0.0,M,0,M,0,*52
$GPRMC,081402,A,5627.5718,N,00617.0556,W,000.0,000.0,130725,00,*9
$GPGGA,081412.6,5627.5467,N,00617.0858,W,1,00,00.00,0.0,M,0,M,0,*5b
$GPRMC,081412,A,5627.5467,N,00617.0858,W,000.0,000.0,130725,00,*0
$GPGGA,081422.7,5627.5240,N,00617.1119,W,1,00,00.00,0.0,M,0,M,0,*57
$GPRMC,081422,A,5627.5240,N,00617.1119,W,000.0,000.0,130725,00,*d
$GPGGA,081433.5,5627.5188,N,00617.1174,W,1,00,00.00,0.0,M,0,M,0,*59
$GPRMC,081433,A,5627.5188,N,00617.1174,W,000.0,000.0,130725,00,*1
$GPGGA,081443.6,5627.5248,N,00617.1111,W,1,00,00.00,0.0,M,0,M,0,*51
$GPRMC,081443,A,5627.5248,N,00617.1111,W,000.0,000.0,130725,00,*a
$GPGGA,082316.4,5626.4711,N,00618.5047,W,1,00,00.00,0.0,M,0,M,0,*57
$GPRMC,082316,A,5626.4711,N,00618.5047,W,000.0,000.0,130725,00,*e
$GPGGA,082327.5,5626.4500,N,00618.5292,W,1,00,00.00,0.0,M,0,M,0,*5c
$GPRMC,082327,A,5626.4500,N,00618.5292,W,000.0,000.0,130725,00,*4
$GPGGA,082336.3,5626.4300,N,00618.5562,W,1,00,00.00,0.0,M,0,M,0,*54
$GPRMC,082336,A,5626.4300,N,00618.5562,W,000.0,000.0,130725,00,*a
$GPGGA,082346.4,5626.4076,N,00618.5920,W,1,00,00.00,0.0,M,0,M,0,*5c
$GPRMC,082346,A,5626.4076,N,00618.5920,W,000.0,000.0,130725,00,*5
$GPGGA,082356.3,5626.3886,N,00618.6214,W,1,00,00.00,0.0,M,0,M,0,*55
$GPRMC,082356,A,5626.3886,N,00618.6214,W,000.0,000.0,130725,00,*b
$GPGGA,082406.3,5626.3714,N,00618.6510,W,1,00,00.00,0.0,M,0,M,0,*50
$GPRMC,082406,A,5626.3714,N,00618.6510,W,000.0,000.0,130725,00,*e
$GPGGA,082416.3,5626.3532,N,00618.6803,W,1,00,00.00,0.0,M,0,M,0,*58
$GPRMC,082416,A,5626.3532,N,00618.6803,W,000.0,000.0,130725,00,*6
$GPGGA,082426.4,5626.3354,N,00618.7073,W,1,00,00.00,0.0,M,0,M,0,*54
$GPRMC,082426,A,5626.3354,N,00618.7073,W,000.0,000.0,130725,00,*d
$GPGGA,082436.4,5626.3171,N,00618.7359,W,1,00,00.00,0.0,M,0,M,0,*5b
$GPRMC,082436,A,5626.3171,N,00618.7359,W,000.0,000.0,130725,00,*2
$GPGGA,082446.4,5626.2990,N,00618.7643,W,1,00,00.00,0.0,M,0,M,0,*54
$GPRMC,082446,A,5626.2990,N,00618.7643,W,000.0,000.0,130725,00,*d
$GPGGA,082456.3,5626.2806,N,00618.7924,W,1,00,00.00,0.0,M,0,M,0,*52
$GPRMC,082456,A,5626.2806,N,00618.7924,W,000.0,000.0,130725,00,*c
$GPGGA,082506.4,5626.2624,N,00618.8205,W,1,00,00.00,0.0,M,0,M,0,*58
$GPRMC,082506,A,5626.2624,N,00618.8205,W,000.0,000.0,130725,00,*1
$GPGGA,082516.3,5626.2438,N,00618.8486,W,1,00,00.00,0.0,M,0,M,0,*5c
$GPRMC,082516,A,5626.2438,N,00618.8486,W,000.0,000.0,130725,00,*2
$GPGGA,082526.3,5626.2251,N,00618.8767,W,1,00,00.00,0.0,M,0,M,0,*5a
$GPRMC,082526,A,5626.2251,N,00618.8767,W,000.0,000.0,130725,00,*4
$GPGGA,082536.3,5626.2063,N,00618.9046,W,1,00,00.00,0.0,M,0,M,0,*5d
$GPRMC,082536,A,5626.2063,N,00618.9046,W,000.0,000.0,130725,00,*3
$GPGGA,082546.3,5626.1879,N,00618.9326,W,1,00,00.00,0.0,M,0,M,0,*5f
$GPRMC,082546,A,5626.1879,N,00618.9326,W,000.0,000.0,130725,00,*1
$GPGGA,082556.3,5626.1695,N,00618.9599,W,1,00,00.00,0.0,M,0,M,0,*50
$GPRMC,082556,A,5626.1695,N,00618.9599,W,000.0,000.0,130725,00,*e
$GPGGA,082606.4,5626.1521,N,00618.9847,W,1,00,00.00,0.0,M,0,M,0,*53
$GPRMC,082606,A,5626.1521,N,00618.9847,W,000.0,000.0,130725,00,*a
$GPGGA,082616.3,5626.1342,N,00619.0121,W,1,00,00.00,0.0,M,0,M,0,*57
$GPRMC,082616,A,5626.1342,N,00619.0121,W,000.0,000.0,130725,00,*9
$GPGGA,082626.3,5626.1188,N,00619.0375,W,1,00,00.00,0.0,M,0,M,0,*53
$GPRMC,082626,A,5626.1188,N,00619.0375,W,000.0,000.0,130725,00,*d
$GPGGA,082636.3,5626.0996,N,00619.0690,W,1,00,00.00,0.0,M,0,M,0,*5a
$GPRMC,082636,A,5626.0996,N,00619.0690,W,000.0,000.0,130725,00,*4
$GPGGA,082646.3,5626.0815,N,00619.0968,W,1,00,00.00,0.0,M,0,M,0,*5f
$GPRMC,082646,A,5626.0815,N,00619.0968,W,000.0,000.0,130725,00,*1
$GPGGA,082656.2,5626.0636,N,00619.1243,W,1,00,00.00,0.0,M,0,M,0,*53
$GPRMC,082656,A,5626.0636,N,00619.1243,W,000.0,000.0,130725,00,*c
$GPGGA,082706.3,5626.0459,N,00619.1522,W,1,00,00.00,0.0,M,0,M,0,*5d
$GPRMC,082706,A,5626.0459,N,00619.1522,W,000.0,000.0,130725,00,*3
$GPGGA,082716.2,5626.0274,N,00619.1790,W,1,00,00.00,0.0,M,0,M,0,*5f
$GPRMC,082716,A,5626.0274,N,00619.1790,W,000.0,000.0,130725,00,*0
$GPGGA,082726.2,5626.0108,N,00619.2070,W,1,00,00.00,0.0,M,0,M,0,*5e
$GPRMC,082726,A,5626.0108,N,00619.2070,W,000.0,000.0,130725,00,*1
$GPGGA,082736.3,5625.9936,N,00619.2316,W,1,00,00.00,0.0,M,0,M,0,*52
$GPRMC,082736,A,5625.9936,N,00619.2316,W,000.0,000.0,130725,00,*c
$GPGGA,082746.2,5625.9750,N,00619.2610,W,1,00,00.00,0.0,M,0,M,0,*59
$GPRMC,082746,A,5625.9750,N,00619.2610,W,000.0,000.0,130725,00,*6
$GPGGA,082756.2,5625.9567,N,00619.2894,W,1,00,00.00,0.0,M,0,M,0,*5c
$GPRMC,082756,A,5625.9567,N,00619.2894,W,000.0,000.0,130725,00,*3
$GPGGA,082806.3,5625.9372,N,00619.3155,W,1,00,00.00,0.0,M,0,M,0,*50
$GPRMC,082806,A,5625.9372,N,00619.3155,W,000.0,000.0,130725,00,*e
$GPGGA,082816.2,5625.9181,N,00619.3371,W,1,00,00.00,0.0,M,0,M,0,*5a
$GPRMC,082816,A,5625.9181,N,00619.3371,W,000.0,000.0,130725,00,*5
$GPGGA,082826.3,5625.8974,N,00619.3601,W,1,00,00.00,0.0,M,0,M,0,*59
$GPRMC,082826,A,5625.8974,N,00619.3601,W,000.0,000.0,130725,00,*7
$GPGGA,082836.3,5625.8776,N,00619.3834,W,1,00,00.00,0.0,M,0,M,0,*5c
$GPRMC,082836,A,5625.8776,N,00619.3834,W,000.0,000.0,130725,00,*2
$GPGGA,082846.2,5625.8584,N,00619.4065,W,1,00,00.00,0.0,M,0,M,0,*5e
$GPRMC,082846,A,5625.8584,N,00619.4065,W,000.0,000.0,130725,00,*1
$GPGGA,082906.2,5625.8183,N,00619.4535,W,1,00,00.00,0.0,M,0,M,0,*58
$GPRMC,082906,A,5625.8183,N,00619.4535,W,000.0,000.0,130725,00,*7
$GPGGA,082916.3,5625.7995,N,00619.4768,W,1,00,00.00,0.0,M,0,M,0,*52
$GPRMC,082916,A,5625.7995,N,00619.4768,W,000.0,000.0,130725,00,*c
$GPGGA,082936.2,5625.7603,N,00619.5226,W,1,00,00.00,0.0,M,0,M,0,*5f
$GPRMC,082936,A,5625.7603,N,00619.5226,W,000.0,000.0,130725,00,*0
$GPGGA,082946.2,5625.7394,N,00619.5434,W,1,00,00.00,0.0,M,0,M,0,*56
$GPRMC,082946,A,5625.7394,N,00619.5434,W,000.0,000.0,130725,00,*9
$GPGGA,082956.3,5625.7190,N,00619.5648,W,1,00,00.00,0.0,M,0,M,0,*59
$GPRMC,082956,A,5625.7190,N,00619.5648,W,000.0,000.0,130725,00,*7
$GPGGA,083006.3,5625.6977,N,00619.5861,W,1,00,00.00,0.0,M,0,M,0,*51
$GPRMC,083006,A,5625.6977,N,00619.5861,W,000.0,000.0,130725,00,*f
$GPGGA,083016.2,5625.6770,N,00619.6084,W,1,00,00.00,0.0,M,0,M,0,*58
$GPRMC,083016,A,5625.6770,N,00619.6084,W,000.0,000.0,130725,00,*7
$GPGGA,083026.2,5625.6562,N,00619.6265,W,1,00,00.00,0.0,M,0,M,0,*57
$GPRMC,083026,A,5625.6562,N,00619.6265,W,000.0,000.0,130725,00,*8
$GPGGA,083036.3,5625.6359,N,00619.6471,W,1,00,00.00,0.0,M,0,M,0,*5a
$GPRMC,083036,A,5625.6359,N,00619.6471,W,000.0,000.0,130725,00,*4
$GPGGA,083046.2,5625.6153,N,00619.6674,W,1,00,00.00,0.0,M,0,M,0,*53
$GPRMC,083046,A,5625.6153,N,00619.6674,W,000.0,000.0,130725,00,*c
$GPGGA,083056.3,5625.5943,N,00619.6876,W,1,00,00.00,0.0,M,0,M,0,*55
$GPRMC,083056,A,5625.5943,N,00619.6876,W,000.0,000.0,130725,00,*b
$GPGGA,083106.2,5625.5740,N,00619.7078,W,1,00,00.00,0.0,M,0,M,0,*5a
$GPRMC,083106,A,5625.5740,N,00619.7078,W,000.0,000.0,130725,00,*5
$GPGGA,083116.2,5625.5530,N,00619.7268,W,1,00,00.00,0.0,M,0,M,0,*5d
$GPRMC,083116,A,5625.5530,N,00619.7268,W,000.0,000.0,130725,00,*2
$GPGGA,083126.3,5625.5324,N,00619.7470,W,1,00,00.00,0.0,M,0,M,0,*53
$GPRMC,083126,A,5625.5324,N,00619.7470,W,000.0,000.0,130725,00,*d
$GPGGA,083136.3,5625.5116,N,00619.7691,W,1,00,00.00,0.0,M,0,M,0,*5c
$GPRMC,083136,A,5625.5116,N,00619.7691,W,000.0,000.0,130725,00,*2
$GPGGA,083146.2,5625.4917,N,00619.7873,W,1,00,00.00,0.0,M,0,M,0,*50
$GPRMC,083146,A,5625.4917,N,00619.7873,W,000.0,000.0,130725,00,*f
$GPGGA,083156.3,5625.4707,N,00619.8070,W,1,00,00.00,0.0,M,0,M,0,*5b
$GPRMC,083156,A,5625.4707,N,00619.8070,W,000.0,000.0,130725,00,*5
$GPGGA,083206.2,5625.4497,N,00619.8276,W,1,00,00.00,0.0,M,0,M,0,*52
$GPRMC,083206,A,5625.4497,N,00619.8276,W,000.0,000.0,130725,00,*d
$GPGGA,083216.2,5625.4289,N,00619.8446,W,1,00,00.00,0.0,M,0,M,0,*5f
$GPRMC,083216,A,5625.4289,N,00619.8446,W,000.0,000.0,130725,00,*0
$GPGGA,083226.3,5625.4073,N,00619.8632,W,1,00,00.00,0.0,M,0,M,0,*5b
$GPRMC,083226,A,5625.4073,N,00619.8632,W,000.0,000.0,130725,00,*5
$GPGGA,083236.3,5625.3867,N,00619.8836,W,1,00,00.00,0.0,M,0,M,0,*5a
$GPRMC,083236,A,5625.3867,N,00619.8836,W,000.0,000.0,130725,00,*4
$GPGGA,083246.3,5625.3661,N,00619.9035,W,1,00,00.00,0.0,M,0,M,0,*5f
$GPRMC,083246,A,5625.3661,N,00619.9035,W,000.0,000.0,130725,00,*1
$GPGGA,083256.2,5625.3451,N,00619.9237,W,1,00,00.00,0.0,M,0,M,0,*5e
$GPRMC,083256,A,5625.3451,N,00619.9237,W,000.0,000.0,130725,00,*1
$GPGGA,083306.3,5625.3242,N,00619.9446,W,1,00,00.00,0.0,M,0,M,0,*5f
$GPRMC,083306,A,5625.3242,N,00619.9446,W,000.0,000.0,130725,00,*1
$GPGGA,083316.2,5625.3040,N,00619.9652,W,1,00,00.00,0.0,M,0,M,0,*58
$GPRMC,083316,A,5625.3040,N,00619.9652,W,000.0,000.0,130725,00,*7
$GPGGA,083326.3,5625.2831,N,00619.9858,W,1,00,00.00,0.0,M,0,M,0,*51
$GPRMC,083326,A,5625.2831,N,00619.9858,W,000.0,000.0,130725,00,*f
$GPGGA,083336.2,5625.2619,N,00620.0056,W,1,00,00.00,0.0,M,0,M,0,*50
$GPRMC,083336,A,5625.2619,N,00620.0056,W,000.0,000.0,130725,00,*f
$GPGGA,083346.2,5625.2407,N,00620.0275,W,1,00,00.00,0.0,M,0,M,0,*59
$GPRMC,083346,A,5625.2407,N,00620.0275,W,000.0,000.0,130725,00,*6
$GPGGA,083356.2,5625.2209,N,00620.0470,W,1,00,00.00,0.0,M,0,M,0,*53
$GPRMC,083356,A,5625.2209,N,00620.0470,W,000.0,000.0,130725,00,*c
$GPGGA,083406.3,5625.1996,N,00620.0672,W,1,00,00.00,0.0,M,0,M,0,*5e
$GPRMC,083406,A,5625.1996,N,00620.0672,W,000.0,000.0,130725,00,*0
$GPGGA,083416.3,5625.1792,N,00620.0881,W,1,00,00.00,0.0,M,0,M,0,*57
$GPRMC,083416,A,5625.1792,N,00620.0881,W,000.0,000.0,130725,00,*9
$GPGGA,083426.3,5625.1588,N,00620.1074,W,1,00,00.00,0.0,M,0,M,0,*5e
$GPRMC,083426,A,5625.1588,N,00620.1074,W,000.0,000.0,130725,00,*0
$GPGGA,083436.3,5625.1386,N,00620.1294,W,1,00,00.00,0.0,M,0,M,0,*5b
$GPRMC,083436,A,5625.1386,N,00620.1294,W,000.0,000.0,130725,00,*5
$GPGGA,083446.2,5625.1184,N,00620.1499,W,1,00,00.00,0.0,M,0,M,0,*56
$GPRMC,083446,A,5625.1184,N,00620.1499,W,000.0,000.0,130725,00,*9
$GPGGA,083456.2,5625.0973,N,00620.1709,W,1,00,00.00,0.0,M,0,M,0,*5c
$GPRMC,083456,A,5625.0973,N,00620.1709,W,000.0,000.0,130725,00,*3
$GPGGA,083506.3,5625.0766,N,00620.1908,W,1,00,00.00,0.0,M,0,M,0,*5c
$GPRMC,083506,A,5625.0766,N,00620.1908,W,000.0,000.0,130725,00,*2
$GPGGA,083516.3,5625.0562,N,00620.2114,W,1,00,00.00,0.0,M,0,M,0,*5d
$GPRMC,083516,A,5625.0562,N,00620.2114,W,000.0,000.0,130725,00,*3
$GPGGA,083526.2,5625.0354,N,00620.2308,W,1,00,00.00,0.0,M,0,M,0,*53
$GPRMC,083526,A,5625.0354,N,00620.2308,W,000.0,000.0,130725,00,*c
$GPGGA,083536.2,5625.0144,N,00620.2502,W,1,00,00.00,0.0,M,0,M,0,*5d
$GPRMC,083536,A,5625.0144,N,00620.2502,W,000.0,000.0,130725,00,*2
$GPGGA,083546.3,5624.9942,N,00620.2683,W,1,00,00.00,0.0,M,0,M,0,*57
$GPRMC,083546,A,5624.9942,N,00620.2683,W,000.0,000.0,130725,00,*9
$GPGGA,083556.2,5624.9735,N,00620.2874,W,1,00,00.00,0.0,M,0,M,0,*5f
$GPRMC,083556,A,5624.9735,N,00620.2874,W,000.0,000.0,130725,00,*0
$GPGGA,083606.3,5624.9518,N,00620.3088,W,1,00,00.00,0.0,M,0,M,0,*5f
$GPRMC,083606,A,5624.9518,N,00620.3088,W,000.0,000.0,130725,00,*1
$GPGGA,083616.2,5624.9317,N,00620.3290,W,1,00,00.00,0.0,M,0,M,0,*5d
$GPRMC,083616,A,5624.9317,N,00620.3290,W,000.0,000.0,130725,00,*2
$GPGGA,083626.3,5624.9110,N,00620.3470,W,1,00,00.00,0.0,M,0,M,0,*52
$GPRMC,083626,A,5624.9110,N,00620.3470,W,000.0,000.0,130725,00,*c
$GPGGA,083636.2,5624.8900,N,00620.3676,W,1,00,00.00,0.0,M,0,M,0,*5e
$GPRMC,083636,A,5624.8900,N,00620.3676,W,000.0,000.0,130725,00,*1
$GPGGA,083646.3,5624.8691,N,00620.3866,W,1,00,00.00,0.0,M,0,M,0,*50
$GPRMC,083646,A,5624.8691,N,00620.3866,W,000.0,000.0,130725,00,*e
$GPGGA,083656.2,5624.8482,N,00620.4051,W,1,00,00.00,0.0,M,0,M,0,*5b
$GPRMC,083656,A,5624.8482,N,00620.4051,W,000.0,000.0,130725,00,*4
$GPGGA,083706.2,5624.8268,N,00620.4251,W,1,00,00.00,0.0,M,0,M,0,*5f
$GPRMC,083706,A,5624.8268,N,00620.4251,W,000.0,000.0,130725,00,*0
$GPGGA,083716.3,5624.8066,N,00620.4448,W,1,00,00.00,0.0,M,0,M,0,*5d
$GPRMC,083716,A,5624.8066,N,00620.4448,W,000.0,000.0,130725,00,*3
$GPGGA,083726.2,5624.7852,N,00620.4631,W,1,00,00.00,0.0,M,0,M,0,*53
$GPRMC,083726,A,5624.7852,N,00620.4631,W,000.0,000.0,130725,00,*c
$GPGGA,083736.3,5624.7642,N,00620.4816,W,1,00,00.00,0.0,M,0,M,0,*57
$GPRMC,083736,A,5624.7642,N,00620.4816,W,000.0,000.0,130725,00,*9
$GPGGA,083746.3,5624.7428,N,00620.5006,W,1,00,00.00,0.0,M,0,M,0,*56
$GPRMC,083746,A,5624.7428,N,00620.5006,W,000.0,000.0,130725,00,*8
$GPGGA,083756.3,5624.7221,N,00620.5187,W,1,00,00.00,0.0,M,0,M,0,*50
$GPRMC,083756,A,5624.7221,N,00620.5187,W,000.0,000.0,130725,00,*e
$GPGGA,083806.3,5624.7012,N,00620.5401,W,1,00,00.00,0.0,M,0,M,0,*53
$GPRMC,083806,A,5624.7012,N,00620.5401,W,000.0,000.0,130725,00,*d
$GPGGA,083816.3,5624.6803,N,00620.5600,W,1,00,00.00,0.0,M,0,M,0,*58
$GPRMC,083816,A,5624.6803,N,00620.5600,W,000.0,000.0,130725,00,*6
$GPGGA,083826.3,5624.6587,N,00620.5780,W,1,00,00.00,0.0,M,0,M,0,*53
$GPRMC,083826,A,5624.6587,N,00620.5780,W,000.0,000.0,130725,00,*d
$GPGGA,083836.3,5624.6373,N,00620.5978,W,1,00,00.00,0.0,M,0,M,0,*56
$GPRMC,083836,A,5624.6373,N,00620.5978,W,000.0,000.0,130725,00,*8
$GPGGA,083846.2,5624.6159,N,00620.6170,W,1,00,00.00,0.0,M,0,M,0,*59
$GPRMC,083846,A,5624.6159,N,00620.6170,W,000.0,000.0,130725,00,*6
$GPGGA,083856.3,5624.5951,N,00620.6374,W,1,00,00.00,0.0,M,0,M,0,*5c
$GPRMC,083856,A,5624.5951,N,00620.6374,W,000.0,000.0,130725,00,*2
$GPGGA,083906.2,5624.5739,N,00620.6556,W,1,00,00.00,0.0,M,0,M,0,*5f
$GPRMC,083906,A,5624.5739,N,00620.6556,W,000.0,000.0,130725,00,*0
$GPGGA,083916.3,5624.5533,N,00620.6746,W,1,00,00.00,0.0,M,0,M,0,*54
$GPRMC,083916,A,5624.5533,N,00620.6746,W,000.0,000.0,130725,00,*a
$GPGGA,083926.2,5624.5321,N,00620.6943,W,1,00,00.00,0.0,M,0,M,0,*58
$GPRMC,083926,A,5624.5321,N,00620.6943,W,000.0,000.0,130725,00,*7
$GPGGA,083936.9,5624.5112,N,00620.7142,W,1,00,00.00,0.0,M,0,M,0,*58
$GPRMC,083936,A,5624.5112,N,00620.7142,W,000.0,000.0,130725,00,*c
$GPGGA,083946.3,5624.4905,N,00620.7360,W,1,00,00.00,0.0,M,0,M,0,*58
$GPRMC,083946,A,5624.4905,N,00620.7360,W,000.0,000.0,130725,00,*6
$GPGGA,083956.2,5624.4690,N,00620.7553,W,1,00,00.00,0.0,M,0,M,0,*5d
$GPRMC,083956,A,5624.4690,N,00620.7553,W,000.0,000.0,130725,00,*2
$GPGGA,084006.2,5624.4482,N,00620.7782,W,1,00,00.00,0.0,M,0,M,0,*59
$GPRMC,084006,A,5624.4482,N,00620.7782,W,000.0,000.0,130725,00,*6
$GPGGA,084016.2,5624.4277,N,00620.7976,W,1,00,00.00,0.0,M,0,M,0,*51
$GPRMC,084016,A,5624.4277,N,00620.7976,W,000.0,000.0,130725,00,*e
$GPGGA,084026.3,5624.4074,N,00620.8206,W,1,00,00.00,0.0,M,0,M,0,*51
$GPRMC,084026,A,5624.4074,N,00620.8206,W,000.0,000.0,130725,00,*f
$GPGGA,084036.3,5624.3869,N,00620.8426,W,1,00,00.00,0.0,M,0,M,0,*57
$GPRMC,084036,A,5624.3869,N,00620.8426,W,000.0,000.0,130725,00,*9
$GPGGA,084046.2,5624.3662,N,00620.8616,W,1,00,00.00,0.0,M,0,M,0,*55
$GPRMC,084046,A,5624.3662,N,00620.8616,W,000.0,000.0,130725,00,*a
$GPGGA,084056.3,5624.3464,N,00620.8844,W,1,00,00.00,0.0,M,0,M,0,*58
$GPRMC,084056,A,5624.3464,N,00620.8844,W,000.0,000.0,130725,00,*6
$GPGGA,084106.3,5624.3259,N,00620.9077,W,1,00,00.00,0.0,M,0,M,0,*5d
$GPRMC,084106,A,5624.3259,N,00620.9077,W,000.0,000.0,130725,00,*3
$GPGGA,084116.1,5624.3055,N,00620.9251,W,1,00,00.00,0.0,M,0,M,0,*56
$GPRMC,084116,A,5624.3055,N,00620.9251,W,000.0,000.0,130725,00,*a
$GPGGA,084122.8,5624.2893,N,00620.9383,W,1,00,00.00,0.0,M,0,M,0,*55
$GPRMC,084122,A,5624.2893,N,00620.9383,W,000.0,000.0,130725,00,*0
$GPGGA,084133.2,5624.2708,N,00620.9568,W,1,00,00.00,0.0,M,0,M,0,*51
$GPRMC,084133,A,5624.2708,N,00620.9568,W,000.0,000.0,130725,00,*e
$GPGGA,084143.2,5624.2500,N,00620.9782,W,1,00,00.00,0.0,M,0,M,0,*5a
$GPRMC,084143,A,5624.2500,N,00620.9782,W,000.0,000.0,130725,00,*5
$GPGGA,084153.2,5624.2300,N,00620.9993,W,1,00,00.00,0.0,M,0,M,0,*53
$GPRMC,084153,A,5624.2300,N,00620.9993,W,000.0,000.0,130725,00,*c
$GPGGA,084203.2,5624.2099,N,00621.0203,W,1,00,00.00,0.0,M,0,M,0,*5c
$GPRMC,084203,A,5624.2099,N,00621.0203,W,000.0,000.0,130725,00,*3
$GPGGA,084213.2,5624.1893,N,00621.0417,W,1,00,00.00,0.0,M,0,M,0,*5f
$GPRMC,084213,A,5624.1893,N,00621.0417,W,000.0,000.0,130725,00,*0
$GPGGA,084228.8,5624.1612,N,00621.0730,W,1,00,00.00,0.0,M,0,M,0,*5c
$GPRMC,084228,A,5624.1612,N,00621.0730,W,000.0,000.0,130725,00,*9
$GPGGA,084232.4,5624.1492,N,00621.0877,W,1,00,00.00,0.0,M,0,M,0,*5d
$GPRMC,084232,A,5624.1492,N,00621.0877,W,000.0,000.0,130725,00,*4
$GPGGA,084242.2,5624.1299,N,00621.1051,W,1,00,00.00,0.0,M,0,M,0,*5c
$GPRMC,084242,A,5624.1299,N,00621.1051,W,000.0,000.0,130725,00,*3
$GPGGA,084252.2,5624.1085,N,00621.1269,W,1,00,00.00,0.0,M,0,M,0,*5b
$GPRMC,084252,A,5624.1085,N,00621.1269,W,000.0,000.0,130725,00,*4
$GPGGA,084302.2,5624.0880,N,00621.1476,W,1,00,00.00,0.0,M,0,M,0,*5b
$GPRMC,084302,A,5624.0880,N,00621.1476,W,000.0,000.0,130725,00,*4
$GPGGA,084312.2,5624.0680,N,00621.1678,W,1,00,00.00,0.0,M,0,M,0,*58
$GPRMC,084312,A,5624.0680,N,00621.1678,W,000.0,000.0,130725,00,*7
$GPGGA,084322.2,5624.0464,N,00621.1890,W,1,00,00.00,0.0,M,0,M,0,*5b
$GPRMC,084322,A,5624.0464,N,00621.1890,W,000.0,000.0,130725,00,*4
$GPGGA,084332.2,5624.0250,N,00621.2093,W,1,00,00.00,0.0,M,0,M,0,*53
$GPRMC,084332,A,5624.0250,N,00621.2093,W,000.0,000.0,130725,00,*c
$GPGGA,084431.6,5623.9090,N,00621.3166,W,1,00,00.00,0.0,M,0,M,0,*59
$GPRMC,084431,A,5623.9090,N,00621.3166,W,000.0,000.0,130725,00,*2
$GPGGA,084458.9,5623.8544,N,00621.3719,W,1,00,00.00,0.0,M,0,M,0,*5a
$GPRMC,084458,A,5623.8544,N,00621.3719,W,000.0,000.0,130725,00,*e
$GPGGA,084509.9,5623.8359,N,00621.3883,W,1,00,00.00,0.0,M,0,M,0,*59
$GPRMC,084509,A,5623.8359,N,00621.3883,W,000.0,000.0,130725,00,*d
$GPGGA,084515.1,5623.8246,N,00621.3980,W,1,00,00.00,0.0,M,0,M,0,*51
$GPRMC,084515,A,5623.8246,N,00621.3980,W,000.0,000.0,130725,00,*d
$GPGGA,084522.3,5623.7934,N,00621.4238,W,1,00,00.00,0.0,M,0,M,0,*59
$GPRMC,084522,A,5623.7934,N,00621.4238,W,000.0,000.0,130725,00,*7
$GPGGA,084542.3,5623.7472,N,00621.4578,W,1,00,00.00,0.0,M,0,M,0,*53
$GPRMC,084542,A,5623.7472,N,00621.4578,W,000.0,000.0,130725,00,*d
$GPGGA,084552.3,5623.7250,N,00621.4751,W,1,00,00.00,0.0,M,0,M,0,*5d
$GPRMC,084552,A,5623.7250,N,00621.4751,W,000.0,000.0,130725,00,*3
$GPGGA,084602.3,5623.7028,N,00621.4955,W,1,00,00.00,0.0,M,0,M,0,*5c
$GPRMC,084602,A,5623.7028,N,00621.4955,W,000.0,000.0,130725,00,*2
$GPGGA,084612.3,5623.6797,N,00621.5138,W,1,00,00.00,0.0,M,0,M,0,*5d
$GPRMC,084612,A,5623.6797,N,00621.5138,W,000.0,000.0,130725,00,*3
$GPGGA,084622.3,5623.6583,N,00621.5266,W,1,00,00.00,0.0,M,0,M,0,*51
$GPRMC,084622,A,5623.6583,N,00621.5266,W,000.0,000.0,130725,00,*f
$GPGGA,084632.3,5623.6359,N,00621.5443,W,1,00,00.00,0.0,M,0,M,0,*50
$GPRMC,084632,A,5623.6359,N,00621.5443,W,000.0,000.0,130725,00,*e
$GPGGA,084642.3,5623.6145,N,00621.5616,W,1,00,00.00,0.0,M,0,M,0,*5a
$GPRMC,084642,A,5623.6145,N,00621.5616,W,000.0,000.0,130725,00,*4
$GPGGA,084652.2,5623.5920,N,00621.5778,W,1,00,00.00,0.0,M,0,M,0,*5b
$GPRMC,084652,A,5623.5920,N,00621.5778,W,000.0,000.0,130725,00,*4
$GPGGA,084702.2,5623.5687,N,00621.5959,W,1,00,00.00,0.0,M,0,M,0,*50
$GPRMC,084702,A,5623.5687,N,00621.5959,W,000.0,000.0,130725,00,*f
$GPGGA,084712.3,5623.5467,N,00621.6133,W,1,00,00.00,0.0,M,0,M,0,*5b
$GPRMC,084712,A,5623.5467,N,00621.6133,W,000.0,000.0,130725,00,*5
$GPGGA,084722.3,5623.5248,N,00621.6292,W,1,00,00.00,0.0,M,0,M,0,*5b
$GPRMC,084722,A,5623.5248,N,00621.6292,W,000.0,000.0,130725,00,*5
$GPGGA,084732.3,5623.5037,N,00621.6464,W,1,00,00.00,0.0,M,0,M,0,*5f
$GPRMC,084732,A,5623.5037,N,00621.6464,W,000.0,000.0,130725,00,*1
$GPGGA,084742.2,5623.4816,N,00621.6649,W,1,00,00.00,0.0,M,0,M,0,*5e
$GPRMC,084742,A,5623.4816,N,00621.6649,W,000.0,000.0,130725,00,*1
$GPGGA,084758.2,5623.4597,N,00621.6818,W,1,00,00.00,0.0,M,0,M,0,*5b
$GPRMC,084758,A,5623.4597,N,00621.6818,W,000.0,000.0,130725,00,*4
$GPGGA,084812.2,5623.4153,N,00621.7118,W,1,00,00.00,0.0,M,0,M,0,*5e
$GPRMC,084812,A,5623.4153,N,00621.7118,W,000.0,000.0,130725,00,*1
$GPGGA,084822.3,5623.3917,N,00621.7255,W,1,00,00.00,0.0,M,0,M,0,*59
$GPRMC,084822,A,5623.3917,N,00621.7255,W,000.0,000.0,130725,00,*7
$GPGGA,084832.3,5623.3687,N,00621.7376,W,1,00,00.00,0.0,M,0,M,0,*5e
$GPRMC,084832,A,5623.3687,N,00621.7376,W,000.0,000.0,130725,00,*0
$GPGGA,084842.3,5623.3453,N,00621.7447,W,1,00,00.00,0.0,M,0,M,0,*57
$GPRMC,084842,A,5623.3453,N,00621.7447,W,000.0,000.0,130725,00,*9
$GPGGA,084852.3,5623.3213,N,00621.7473,W,1,00,00.00,0.0,M,0,M,0,*53
$GPRMC,084852,A,5623.3213,N,00621.7473,W,000.0,000.0,130725,00,*d
$GPGGA,084902.3,5623.2972,N,00621.7525,W,1,00,00.00,0.0,M,0,M,0,*58
$GPRMC,084902,A,5623.2972,N,00621.7525,W,000.0,000.0,130725,00,*6
$GPGGA,084912.3,5623.2735,N,00621.7585,W,1,00,00.00,0.0,M,0,M,0,*5e
$GPRMC,084912,A,5623.2735,N,00621.7585,W,000.0,000.0,130725,00,*0
$GPGGA,084921.7,5623.2596,N,00621.7594,W,1,00,00.00,0.0,M,0,M,0,*51
$GPRMC,084921,A,5623.2596,N,00621.7594,W,000.0,000.0,130725,00,*b
$GPGGA,084937.6,5623.2190,N,00621.7712,W,1,00,00.00,0.0,M,0,M,0,*59
$GPRMC,084937,A,5623.2190,N,00621.7712,W,000.0,000.0,130725,00,*2
$GPGGA,084942.2,5623.1988,N,00621.7704,W,1,00,00.00,0.0,M,0,M,0,*5a
$GPRMC,084942,A,5623.1988,N,00621.7704,W,000.0,000.0,130725,00,*5
$GPGGA,084947.0,5623.1871,N,00621.7731,W,1,00,00.00,0.0,M,0,M,0,*5c
$GPRMC,084947,A,5623.1871,N,00621.7731,W,000.0,000.0,130725,00,*1
$GPGGA,084954.6,5623.1686,N,00621.7764,W,1,00,00.00,0.0,M,0,M,0,*5e
$GPRMC,084954,A,5623.1686,N,00621.7764,W,000.0,000.0,130725,00,*5
$GPGGA,085003.1,5623.1566,N,00621.7780,W,1,00,00.00,0.0,M,0,M,0,*54
$GPRMC,085003,A,5623.1566,N,00621.7780,W,000.0,000.0,130725,00,*8
$GPGGA,085013.1,5623.1367,N,00621.7846,W,1,00,00.00,0.0,M,0,M,0,*57
$GPRMC,085013,A,5623.1367,N,00621.7846,W,000.0,000.0,130725,00,*b
$GPGGA,085023.2,5623.1133,N,00621.7904,W,1,00,00.00,0.0,M,0,M,0,*53
$GPRMC,085023,A,5623.1133,N,00621.7904,W,000.0,000.0,130725,00,*c
$GPGGA,085034.2,5623.0774,N,00621.7904,W,1,00,00.00,0.0,M,0,M,0,*51
$GPRMC,085034,A,5623.0774,N,00621.7904,W,000.0,000.0,130725,00,*e
$GPGGA,085044.3,5623.0540,N,00621.7912,W,1,00,00.00,0.0,M,0,M,0,*55
$GPRMC,085044,A,5623.0540,N,00621.7912,W,000.0,000.0,130725,00,*b
$GPGGA,085054.3,5623.0313,N,00621.7934,W,1,00,00.00,0.0,M,0,M,0,*50
$GPRMC,085054,A,5623.0313,N,00621.7934,W,000.0,000.0,130725,00,*e
$GPGGA,085104.3,5623.0076,N,00621.7929,W,1,00,00.00,0.0,M,0,M,0,*58
$GPRMC,085104,A,5623.0076,N,00621.7929,W,000.0,000.0,130725,00,*6
$GPGGA,085114.3,5622.9828,N,00621.7947,W,1,00,00.00,0.0,M,0,M,0,*5a
$GPRMC,085114,A,5622.9828,N,00621.7947,W,000.0,000.0,130725,00,*4
$GPGGA,085124.3,5622.9573,N,00621.7955,W,1,00,00.00,0.0,M,0,M,0,*59
$GPRMC,085124,A,5622.9573,N,00621.7955,W,000.0,000.0,130725,00,*7
$GPGGA,085134.3,5622.9334,N,00621.7990,W,1,00,00.00,0.0,M,0,M,0,*54
$GPRMC,085134,A,5622.9334,N,00621.7990,W,000.0,000.0,130725,00,*a
$GPGGA,085144.3,5622.9098,N,00621.8008,W,1,00,00.00,0.0,M,0,M,0,*51
$GPRMC,085144,A,5622.9098,N,00621.8008,W,000.0,000.0,130725,00,*f
$GPGGA,085154.3,5622.8856,N,00621.8035,W,1,00,00.00,0.0,M,0,M,0,*55
$GPRMC,085154,A,5622.8856,N,00621.8035,W,000.0,000.0,130725,00,*b
$GPGGA,085204.3,5622.8628,N,00621.8062,W,1,00,00.00,0.0,M,0,M,0,*56
$GPRMC,085204,A,5622.8628,N,00621.8062,W,000.0,000.0,130725,00,*8
$GPGGA,085214.4,5622.8388,N,00621.8092,W,1,00,00.00,0.0,M,0,M,0,*50
$GPRMC,085214,A,5622.8388,N,00621.8092,W,000.0,000.0,130725,00,*9
$GPGGA,085224.3,5622.8149,N,00621.8125,W,1,00,00.00,0.0,M,0,M,0,*56
$GPRMC,085224,A,5622.8149,N,00621.8125,W,000.0,000.0,130725,00,*8
$GPGGA,085234.3,5622.7914,N,00621.8161,W,1,00,00.00,0.0,M,0,M,0,*58
$GPRMC,085234,A,5622.7914,N,00621.8161,W,000.0,000.0,130725,00,*6
$GPGGA,085244.3,5622.7679,N,00621.8187,W,1,00,00.00,0.0,M,0,M,0,*53
$GPRMC,085244,A,5622.7679,N,00621.8187,W,000.0,000.0,130725,00,*d
$GPGGA,085254.3,5622.7438,N,00621.8234,W,1,00,00.00,0.0,M,0,M,0,*5e
$GPRMC,085254,A,5622.7438,N,00621.8234,W,000.0,000.0,130725,00,*0
$GPGGA,085304.3,5622.7214,N,00621.8263,W,1,00,00.00,0.0,M,0,M,0,*50
$GPRMC,085304,A,5622.7214,N,00621.8263,W,000.0,000.0,130725,00,*e
$GPGGA,085314.2,5622.7013,N,00621.8312,W,1,00,00.00,0.0,M,0,M,0,*52
$GPRMC,085314,A,5622.7013,N,00621.8312,W,000.0,000.0,130725,00,*d
$GPGGA,085324.3,5622.6803,N,00621.8311,W,1,00,00.00,0.0,M,0,M,0,*5b
$GPRMC,085324,A,5622.6803,N,00621.8311,W,000.0,000.0,130725,00,*5
$GPGGA,085334.2,5622.6574,N,00621.8285,W,1,00,00.00,0.0,M,0,M,0,*5a
$GPRMC,085334,A,5622.6574,N,00621.8285,W,000.0,000.0,130725,00,*5
$GPGGA,085351.2,5622.6175,N,00621.8287,W,1,00,00.00,0.0,M,0,M,0,*5e
$GPRMC,085351,A,5622.6175,N,00621.8287,W,000.0,000.0,130725,00,*1
$GPGGA,085706.1,5622.1372,N,00621.9079,W,1,00,00.00,0.0,M,0,M,0,*5b
$GPRMC,085706,A,5622.1372,N,00621.9079,W,000.0,000.0,130725,00,*7
$GPGGA,085711.0,5622.1227,N,00621.9113,W,1,00,00.00,0.0,M,0,M,0,*50
$GPRMC,085711,A,5622.1227,N,00621.9113,W,000.0,000.0,130725,00,*d
$GPGGA,085716.0,5622.1108,N,00621.9136,W,1,00,00.00,0.0,M,0,M,0,*5e
$GPRMC,085716,A,5622.1108,N,00621.9136,W,000.0,000.0,130725,00,*3
$GPGGA,085721.0,5622.0991,N,00621.9165,W,1,00,00.00,0.0,M,0,M,0,*55
$GPRMC,085721,A,5622.0991,N,00621.9165,W,000.0,000.0,130725,00,*8
$GPGGA,085726.1,5622.0874,N,00621.9179,W,1,00,00.00,0.0,M,0,M,0,*54
$GPRMC,085726,A,5622.0874,N,00621.9179,W,000.0,000.0,130725,00,*8
$GPGGA,085731.0,5622.0756,N,00621.9192,W,1,00,00.00,0.0,M,0,M,0,*59
$GPRMC,085731,A,5622.0756,N,00621.9192,W,000.0,000.0,130725,00,*4
$GPGGA,085736.1,5622.0633,N,00621.9204,W,1,00,00.00,0.0,M,0,M,0,*51
$GPRMC,085736,A,5622.0633,N,00621.9204,W,000.0,000.0,130725,00,*d
$GPGGA,085741.0,5622.0518,N,00621.9227,W,1,00,00.00,0.0,M,0,M,0,*5b
$GPRMC,085741,A,5622.0518,N,00621.9227,W,000.0,000.0,130725,00,*6
$GPGGA,085746.0,5622.0395,N,00621.9248,W,1,00,00.00,0.0,M,0,M,0,*56
$GPRMC,085746,A,5622.0395,N,00621.9248,W,000.0,000.0,130725,00,*b
$GPGGA,085751.0,5622.0282,N,00621.9257,W,1,00,00.00,0.0,M,0,M,0,*59
$GPRMC,085751,A,5622.0282,N,00621.9257,W,000.0,000.0,130725,00,*4
$GPGGA,085756.0,5622.0160,N,00621.9282,W,1,00,00.00,0.0,M,0,M,0,*59
$GPRMC,085756,A,5622.0160,N,00621.9282,W,000.0,000.0,130725,00,*4
$GPGGA,085801.0,5622.0037,N,00621.9302,W,1,00,00.00,0.0,M,0,M,0,*5e
$GPRMC,085801,A,5622.0037,N,00621.9302,W,000.0,000.0,130725,00,*3
$GPGGA,085806.0,5621.9907,N,00621.9318,W,1,00,00.00,0.0,M,0,M,0,*52
$GPRMC,085806,A,5621.9907,N,00621.9318,W,000.0,000.0,130725,00,*f
$GPGGA,085811.0,5621.9784,N,00621.9335,W,1,00,00.00,0.0,M,0,M,0,*5e
$GPRMC,085811,A,5621.9784,N,00621.9335,W,000.0,000.0,130725,00,*3
$GPGGA,085816.0,5621.9658,N,00621.9347,W,1,00,00.00,0.0,M,0,M,0,*5c
$GPRMC,085816,A,5621.9658,N,00621.9347,W,000.0,000.0,130725,00,*1
$GPGGA,085821.0,5621.9535,N,00621.9374,W,1,00,00.00,0.0,M,0,M,0,*50
$GPRMC,085821,A,5621.9535,N,00621.9374,W,000.0,000.0,130725,00,*d
$GPGGA,085826.0,5621.9417,N,00621.9402,W,1,00,00.00,0.0,M,0,M,0,*50
$GPRMC,085826,A,5621.9417,N,00621.9402,W,000.0,000.0,130725,00,*d
$GPGGA,085831.0,5621.9288,N,00621.9421,W,1,00,00.00,0.0,M,0,M,0,*57
$GPRMC,085831,A,5621.9288,N,00621.9421,W,000.0,000.0,130725,00,*a
$GPGGA,085836.0,5621.9167,N,00621.9449,W,1,00,00.00,0.0,M,0,M,0,*5c
$GPRMC,085836,A,5621.9167,N,00621.9449,W,000.0,000.0,130725,00,*1
$GPGGA,085841.0,5621.9046,N,00621.9466,W,1,00,00.00,0.0,M,0,M,0,*53
$GPRMC,085841,A,5621.9046,N,00621.9466,W,000.0,000.0,130725,00,*e
$GPGGA,085846.0,5621.8927,N,00621.9491,W,1,00,00.00,0.0,M,0,M,0,*53
$GPRMC,085846,A,5621.8927,N,00621.9491,W,000.0,000.0,130725,00,*e
$GPGGA,085851.0,5621.8809,N,00621.9504,W,1,00,00.00,0.0,M,0,M,0,*55
$GPRMC,085851,A,5621.8809,N,00621.9504,W,000.0,000.0,130725,00,*8
$GPGGA,085856.0,5621.8696,N,00621.9510,W,1,00,00.00,0.0,M,0,M,0,*5f
$GPRMC,085856,A,5621.8696,N,00621.9510,W,000.0,000.0,130725,00,*2
$GPGGA,085901.0,5621.8577,N,00621.9506,W,1,00,00.00,0.0,M,0,M,0,*57
$GPRMC,085901,A,5621.8577,N,00621.9506,W,000.0,000.0,130725,00,*a
$GPGGA,085905.7,5621.8450,N,00621.9508,W,1,00,00.00,0.0,M,0,M,0,*5e
$GPRMC,085905,A,5621.8450,N,00621.9508,W,000.0,000.0,130725,00,*4
$GPGGA,085915.3,5621.8268,N,00621.9541,W,1,00,00.00,0.0,M,0,M,0,*5b
$GPRMC,085915,A,5621.8268,N,00621.9541,W,000.0,000.0,130725,00,*5
$GPGGA,085925.4,5621.8025,N,00621.9545,W,1,00,00.00,0.0,M,0,M,0,*50
$GPRMC,085925,A,5621.8025,N,00621.9545,W,000.0,000.0,130725,00,*9
$GPGGA,085935.3,5621.7780,N,00621.9563,W,1,00,00.00,0.0,M,0,M,0,*55
$GPRMC,085935,A,5621.7780,N,00621.9563,W,000.0,000.0,130725,00,*b
$GPGGA,085945.3,5621.7535,N,00621.9573,W,1,00,00.00,0.0,M,0,M,0,*5f
$GPRMC,085945,A,5621.7535,N,00621.9573,W,000.0,000.0,130725,00,*1
$GPGGA,085955.2,5621.7296,N,00621.9583,W,1,00,00.00,0.0,M,0,M,0,*5e
$GPRMC,085955,A,5621.7296,N,00621.9583,W,000.0,000.0,130725,00,*1
$GPGGA,090005.3,5621.7054,N,00621.9584,W,1,00,00.00,0.0,M,0,M,0,*5c
$GPRMC,090005,A,5621.7054,N,00621.9584,W,000.0,000.0,130725,00,*2
$GPGGA,090015.3,5621.6820,N,00621.9590,W,1,00,00.00,0.0,M,0,M,0,*52
$GPRMC,090015,A,5621.6820,N,00621.9590,W,000.0,000.0,130725,00,*c
$GPGGA,090025.3,5621.6580,N,00621.9600,W,1,00,00.00,0.0,M,0,M,0,*5c
$GPRMC,090025,A,5621.6580,N,00621.9600,W,000.0,000.0,130725,00,*2
$GPGGA,090035.3,5621.6333,N,00621.9601,W,1,00,00.00,0.0,M,0,M,0,*52
$GPRMC,090035,A,5621.6333,N,00621.9601,W,000.0,000.0,130725,00,*c
$GPGGA,090045.3,5621.6097,N,00621.9608,W,1,00,00.00,0.0,M,0,M,0,*51
$GPRMC,090045,A,5621.6097,N,00621.9608,W,000.0,000.0,130725,00,*f
$GPGGA,090055.3,5621.5855,N,00621.9616,W,1,00,00.00,0.0,M,0,M,0,*5a
$GPRMC,090055,A,5621.5855,N,00621.9616,W,000.0,000.0,130725,00,*4
$GPGGA,090105.3,5621.5613,N,00621.9629,W,1,00,00.00,0.0,M,0,M,0,*5e
$GPRMC,090105,A,5621.5613,N,00621.9629,W,000.0,000.0,130725,00,*0
$GPGGA,090115.3,5621.5374,N,00621.9631,W,1,00,00.00,0.0,M,0,M,0,*52
$GPRMC,090115,A,5621.5374,N,00621.9631,W,000.0,000.0,130725,00,*c
$GPGGA,090125.4,5621.5137,N,00621.9637,W,1,00,00.00,0.0,M,0,M,0,*55
$GPRMC,090125,A,5621.5137,N,00621.9637,W,000.0,000.0,130725,00,*c
$GPGGA,090135.4,5621.4899,N,00621.9650,W,1,00,00.00,0.0,M,0,M,0,*59
$GPRMC,090135,A,5621.4899,N,00621.9650,W,000.0,000.0,130725,00,*0
$GPGGA,090145.3,5621.4659,N,00621.9658,W,1,00,00.00,0.0,M,0,M,0,*53
$GPRMC,090145,A,5621.4659,N,00621.9658,W,000.0,000.0,130725,00,*d
$GPGGA,090155.3,5621.4418,N,00621.9664,W,1,00,00.00,0.0,M,0,M,0,*5a
$GPRMC,090155,A,5621.4418,N,00621.9664,W,000.0,000.0,130725,00,*4
$GPGGA,090205.3,5621.4176,N,00621.9683,W,1,00,00.00,0.0,M,0,M,0,*58
$GPRMC,090205,A,5621.4176,N,00621.9683,W,000.0,000.0,130725,00,*6
$GPGGA,090215.3,5621.3930,N,00621.9682,W,1,00,00.00,0.0,M,0,M,0,*55
$GPRMC,090215,A,5621.3930,N,00621.9682,W,000.0,000.0,130725,00,*b
$GPGGA,090225.3,5621.3693,N,00621.9708,W,1,00,00.00,0.0,M,0,M,0,*53
$GPRMC,090225,A,5621.3693,N,00621.9708,W,000.0,000.0,130725,00,*d
$GPGGA,090235.3,5621.3450,N,00621.9712,W,1,00,00.00,0.0,M,0,M,0,*54
$GPRMC,090235,A,5621.3450,N,00621.9712,W,000.0,000.0,130725,00,*a
$GPGGA,090255.3,5621.2969,N,00621.9737,W,1,00,00.00,0.0,M,0,M,0,*53
$GPRMC,090255,A,5621.2969,N,00621.9737,W,000.0,000.0,130725,00,*d
$GPGGA,090305.3,5621.2726,N,00621.9740,W,1,00,00.00,0.0,M,0,M,0,*52
$GPRMC,090305,A,5621.2726,N,00621.9740,W,000.0,000.0,130725,00,*c
$GPGGA,090315.3,5621.2483,N,00621.9759,W,1,00,00.00,0.0,M,0,M,0,*57
$GPRMC,090315,A,5621.2483,N,00621.9759,W,000.0,000.0,130725,00,*9
$GPGGA,090325.4,5621.2239,N,00621.9766,W,1,00,00.00,0.0,M,0,M,0,*58
$GPRMC,090325,A,5621.2239,N,00621.9766,W,000.0,000.0,130725,00,*1
$GPGGA,090335.3,5621.1995,N,00621.9787,W,1,00,00.00,0.0,M,0,M,0,*5f
$GPRMC,090335,A,5621.1995,N,00621.9787,W,000.0,000.0,130725,00,*1
$GPGGA,090345.3,5621.1748,N,00621.9790,W,1,00,00.00,0.0,M,0,M,0,*50
$GPRMC,090345,A,5621.1748,N,00621.9790,W,000.0,000.0,130725,00,*e
$GPGGA,090355.3,5621.1503,N,00621.9808,W,1,00,00.00,0.0,M,0,M,0,*52
$GPRMC,090355,A,5621.1503,N,00621.9808,W,000.0,000.0,130725,00,*c
$GPGGA,090405.4,5621.1253,N,00621.9925,W,1,00,00.00,0.0,M,0,M,0,*5b
$GPRMC,090405,A,5621.1253,N,00621.9925,W,000.0,000.0,130725,00,*2
$GPGGA,090412.9,5621.1121,N,00622.0008,W,1,00,00.00,0.0,M,0,M,0,*5a
$GPRMC,090412,A,5621.1121,N,00622.0008,W,000.0,000.0,130725,00,*e
$GPGGA,090425.3,5621.0810,N,00622.0200,W,1,00,00.00,0.0,M,0,M,0,*54
$GPRMC,090425,A,5621.0810,N,00622.0200,W,000.0,000.0,130725,00,*a
$GPGGA,090435.3,5621.0606,N,00622.0386,W,1,00,00.00,0.0,M,0,M,0,*53
$GPRMC,090435,A,5621.0606,N,00622.0386,W,000.0,000.0,130725,00,*d
$GPGGA,090445.3,5621.0396,N,00622.0598,W,1,00,00.00,0.0,M,0,M,0,*51
$GPRMC,090445,A,5621.0396,N,00622.0598,W,000.0,000.0,130725,00,*f
$GPGGA,090455.3,5621.0196,N,00622.0825,W,1,00,00.00,0.0,M,0,M,0,*59
$GPRMC,090455,A,5621.0196,N,00622.0825,W,000.0,000.0,130725,00,*7
$GPGGA,090505.3,5620.9989,N,00622.1013,W,1,00,00.00,0.0,M,0,M,0,*5f
$GPRMC,090505,A,5620.9989,N,00622.1013,W,000.0,000.0,130725,00,*1
$GPGGA,090515.3,5620.9786,N,00622.1234,W,1,00,00.00,0.0,M,0,M,0,*58
$GPRMC,090515,A,5620.9786,N,00622.1234,W,000.0,000.0,130725,00,*6
$GPGGA,090525.3,5620.9577,N,00622.1457,W,1,00,00.00,0.0,M,0,M,0,*54
$GPRMC,090525,A,5620.9577,N,00622.1457,W,000.0,000.0,130725,00,*a
$GPGGA,090535.3,5620.9373,N,00622.1671,W,1,00,00.00,0.0,M,0,M,0,*51
$GPRMC,090535,A,5620.9373,N,00622.1671,W,000.0,000.0,130725,00,*f
$GPGGA,090545.3,5620.9168,N,00622.1891,W,1,00,00.00,0.0,M,0,M,0,*5e
$GPRMC,090545,A,5620.9168,N,00622.1891,W,000.0,000.0,130725,00,*0
$GPGGA,090555.3,5620.8949,N,00622.2111,W,1,00,00.00,0.0,M,0,M,0,*57
$GPRMC,090555,A,5620.8949,N,00622.2111,W,000.0,000.0,130725,00,*9
$GPGGA,090605.3,5620.8738,N,00622.2333,W,1,00,00.00,0.0,M,0,M,0,*5b
$GPRMC,090605,A,5620.8738,N,00622.2333,W,000.0,000.0,130725,00,*5
$GPGGA,090615.3,5620.8522,N,00622.2550,W,1,00,00.00,0.0,M,0,M,0,*50
$GPRMC,090615,A,5620.8522,N,00622.2550,W,000.0,000.0,130725,00,*e
$GPGGA,090625.3,5620.8312,N,00622.2776,W,1,00,00.00,0.0,M,0,M,0,*50
$GPRMC,090625,A,5620.8312,N,00622.2776,W,000.0,000.0,130725,00,*e
$GPGGA,090635.3,5620.8091,N,00622.3004,W,1,00,00.00,0.0,M,0,M,0,*5a
$GPRMC,090635,A,5620.8091,N,00622.3004,W,000.0,000.0,130725,00,*4
$GPGGA,090645.2,5620.7885,N,00622.3215,W,1,00,00.00,0.0,M,0,M,0,*5c
$GPRMC,090645,A,5620.7885,N,00622.3215,W,000.0,000.0,130725,00,*3
$GPGGA,090655.3,5620.7668,N,00622.3438,W,1,00,00.00,0.0,M,0,M,0,*58
$GPRMC,090655,A,5620.7668,N,00622.3438,W,000.0,000.0,130725,00,*6
$GPGGA,090705.3,5620.7467,N,00622.3647,W,1,00,00.00,0.0,M,0,M,0,*5b
$GPRMC,090705,A,5620.7467,N,00622.3647,W,000.0,000.0,130725,00,*5
$GPGGA,090715.3,5620.7279,N,00622.3826,W,1,00,00.00,0.0,M,0,M,0,*5a
$GPRMC,090715,A,5620.7279,N,00622.3826,W,000.0,000.0,130725,00,*4
$GPGGA,090725.3,5620.7081,N,00622.3977,W,1,00,00.00,0.0,M,0,M,0,*59
$GPRMC,090725,A,5620.7081,N,00622.3977,W,000.0,000.0,130725,00,*7
$GPGGA,090735.3,5620.6906,N,00622.4128,W,1,00,00.00,0.0,M,0,M,0,*5a
$GPRMC,090735,A,5620.6906,N,00622.4128,W,000.0,000.0,130725,00,*4
$GPGGA,090745.3,5620.6727,N,00622.4287,W,1,00,00.00,0.0,M,0,M,0,*56
$GPRMC,090745,A,5620.6727,N,00622.4287,W,000.0,000.0,130725,00,*8
$GPGGA,090755.3,5620.6539,N,00622.4435,W,1,00,00.00,0.0,M,0,M,0,*55
$GPRMC,090755,A,5620.6539,N,00622.4435,W,000.0,000.0,130725,00,*b
$GPGGA,090805.3,5620.6355,N,00622.4584,W,1,00,00.00,0.0,M,0,M,0,*58
$GPRMC,090805,A,5620.6355,N,00622.4584,W,000.0,000.0,130725,00,*6
$GPGGA,090815.2,5620.6161,N,00622.4712,W,1,00,00.00,0.0,M,0,M,0,*50
$GPRMC,090815,A,5620.6161,N,00622.4712,W,000.0,000.0,130725,00,*f
$GPGGA,090825.3,5620.5986,N,00622.4866,W,1,00,00.00,0.0,M,0,M,0,*5c
$GPRMC,090825,A,5620.5986,N,00622.4866,W,000.0,000.0,130725,00,*2
$GPGGA,090835.4,5620.5804,N,00622.5010,W,1,00,00.00,0.0,M,0,M,0,*59
$GPRMC,090835,A,5620.5804,N,00622.5010,W,000.0,000.0,130725,00,*0
$GPGGA,090845.3,5620.5612,N,00622.5159,W,1,00,00.00,0.0,M,0,M,0,*5c
$GPRMC,090845,A,5620.5612,N,00622.5159,W,000.0,000.0,130725,00,*2
$GPGGA,090855.3,5620.5421,N,00622.5270,W,1,00,00.00,0.0,M,0,M,0,*57
$GPRMC,090855,A,5620.5421,N,00622.5270,W,000.0,000.0,130725,00,*9
$GPGGA,090905.3,5620.5239,N,00622.5392,W,1,00,00.00,0.0,M,0,M,0,*51
$GPRMC,090905,A,5620.5239,N,00622.5392,W,000.0,000.0,130725,00,*f
$GPGGA,090915.3,5620.5047,N,00622.5486,W,1,00,00.00,0.0,M,0,M,0,*59
$GPRMC,090915,A,5620.5047,N,00622.5486,W,000.0,000.0,130725,00,*7
$GPGGA,090925.2,5620.4859,N,00622.5573,W,1,00,00.00,0.0,M,0,M,0,*56
$GPRMC,090925,A,5620.4859,N,00622.5573,W,000.0,000.0,130725,00,*9
$GPGGA,090935.4,5620.4647,N,00622.5682,W,1,00,00.00,0.0,M,0,M,0,*5d
$GPRMC,090935,A,5620.4647,N,00622.5682,W,000.0,000.0,130725,00,*4
$GPGGA,090945.3,5620.4462,N,00622.5744,W,1,00,00.00,0.0,M,0,M,0,*53
$GPRMC,090945,A,5620.4462,N,00622.5744,W,000.0,000.0,130725,00,*d
$GPGGA,090955.3,5620.4256,N,00622.5818,W,1,00,00.00,0.0,M,0,M,0,*55
$GPRMC,090955,A,5620.4256,N,00622.5818,W,000.0,000.0,130725,00,*b
$GPGGA,091005.3,5620.4052,N,00622.5896,W,1,00,00.00,0.0,M,0,M,0,*58
$GPRMC,091005,A,5620.4052,N,00622.5896,W,000.0,000.0,130725,00,*6
$GPGGA,091015.3,5620.3844,N,00622.5970,W,1,00,00.00,0.0,M,0,M,0,*58
$GPRMC,091015,A,5620.3844,N,00622.5970,W,000.0,000.0,130725,00,*6
$GPGGA,091025.3,5620.3643,N,00622.6021,W,1,00,00.00,0.0,M,0,M,0,*5c
$GPRMC,091025,A,5620.3643,N,00622.6021,W,000.0,000.0,130725,00,*2
$GPGGA,091035.3,5620.3436,N,00622.6066,W,1,00,00.00,0.0,M,0,M,0,*5e
$GPRMC,091035,A,5620.3436,N,00622.6066,W,000.0,000.0,130725,00,*0
$GPGGA,091045.2,5620.3240,N,00622.6127,W,1,00,00.00,0.0,M,0,M,0,*5b
$GPRMC,091045,A,5620.3240,N,00622.6127,W,000.0,000.0,130725,00,*4
$GPGGA,091055.2,5620.3053,N,00622.6162,W,1,00,00.00,0.0,M,0,M,0,*5b
$GPRMC,091055,A,5620.3053,N,00622.6162,W,000.0,000.0,130725,00,*4
$GPGGA,091105.2,5620.2874,N,00622.6215,W,1,00,00.00,0.0,M,0,M,0,*50
$GPRMC,091105,A,5620.2874,N,00622.6215,W,000.0,000.0,130725,00,*f
$GPGGA,091115.3,5620.2687,N,00622.6241,W,1,00,00.00,0.0,M,0,M,0,*53
$GPRMC,091115,A,5620.2687,N,00622.6241,W,000.0,000.0,130725,00,*d
$GPGGA,091125.3,5620.2502,N,00622.6262,W,1,00,00.00,0.0,M,0,M,0,*5f
$GPRMC,091125,A,5620.2502,N,00622.6262,W,000.0,000.0,130725,00,*1
$GPGGA,091135.3,5620.2316,N,00622.6288,W,1,00,00.00,0.0,M,0,M,0,*59
$GPRMC,091135,A,5620.2316,N,00622.6288,W,000.0,000.0,130725,00,*7
$GPGGA,091145.3,5620.2138,N,00622.6267,W,1,00,00.00,0.0,M,0,M,0,*51
$GPRMC,091145,A,5620.2138,N,00622.6267,W,000.0,000.0,130725,00,*f
$GPGGA,091155.3,5620.1948,N,00622.6253,W,1,00,00.00,0.0,M,0,M,0,*5b
$GPRMC,091155,A,5620.1948,N,00622.6253,W,000.0,000.0,130725,00,*5
$GPGGA,091205.3,5620.1772,N,00622.6200,W,1,00,00.00,0.0,M,0,M,0,*5c
$GPRMC,091205,A,5620.1772,N,00622.6200,W,000.0,000.0,130725,00,*2
$GPGGA,091225.3,5620.1437,N,00622.6016,W,1,00,00.00,0.0,M,0,M,0,*59
$GPRMC,091225,A,5620.1437,N,00622.6016,W,000.0,000.0,130725,00,*7
$GPGGA,091235.2,5620.1255,N,00622.5892,W,1,00,00.00,0.0,M,0,M,0,*5c
$GPRMC,091235,A,5620.1255,N,00622.5892,W,000.0,000.0,130725,00,*3
$GPGGA,091249.6,5620.1101,N,00622.5750,W,1,00,00.00,0.0,M,0,M,0,*50
$GPRMC,091249,A,5620.1101,N,00622.5750,W,000.0,000.0,130725,00,*b
$GPGGA,091255.3,5620.0951,N,00622.5608,W,1,00,00.00,0.0,M,0,M,0,*58
$GPRMC,091255,A,5620.0951,N,00622.5608,W,000.0,000.0,130725,00,*6
$GPGGA,091305.3,5620.0804,N,00622.5404,W,1,00,00.00,0.0,M,0,M,0,*53
$GPRMC,091305,A,5620.0804,N,00622.5404,W,000.0,000.0,130725,00,*d
$GPGGA,091315.3,5620.0669,N,00622.5205,W,1,00,00.00,0.0,M,0,M,0,*50
$GPRMC,091315,A,5620.0669,N,00622.5205,W,000.0,000.0,130725,00,*e
$GPGGA,091325.3,5620.0542,N,00622.5018,W,1,00,00.00,0.0,M,0,M,0,*57
$GPRMC,091325,A,5620.0542,N,00622.5018,W,000.0,000.0,130725,00,*9
$GPGGA,091335.3,5620.0414,N,00622.4843,W,1,00,00.00,0.0,M,0,M,0,*53
$GPRMC,091335,A,5620.0414,N,00622.4843,W,000.0,000.0,130725,00,*d
$GPGGA,091345.3,5620.0287,N,00622.4635,W,1,00,00.00,0.0,M,0,M,0,*57
$GPRMC,091345,A,5620.0287,N,00622.4635,W,000.0,000.0,130725,00,*9
$GPGGA,091355.3,5620.0170,N,00622.4444,W,1,00,00.00,0.0,M,0,M,0,*59
$GPRMC,091355,A,5620.0170,N,00622.4444,W,000.0,000.0,130725,00,*7
$GPGGA,091405.3,5620.0046,N,00622.4249,W,1,00,00.00,0.0,M,0,M,0,*54
$GPRMC,091405,A,5620.0046,N,00622.4249,W,000.0,000.0,130725,00,*a
$GPGGA,091415.3,5619.9928,N,00622.4047,W,1,00,00.00,0.0,M,0,M,0,*5b
$GPRMC,091415,A,5619.9928,N,00622.4047,W,000.0,000.0,130725,00,*5
$GPGGA,091425.3,5619.9774,N,00622.3857,W,1,00,00.00,0.0,M,0,M,0,*51
$GPRMC,091425,A,5619.9774,N,00622.3857,W,000.0,000.0,130725,00,*f
$GPGGA,091435.3,5619.9624,N,00622.3738,W,1,00,00.00,0.0,M,0,M,0,*52
$GPRMC,091435,A,5619.9624,N,00622.3738,W,000.0,000.0,130725,00,*c
$GPGGA,091445.3,5619.9475,N,00622.3684,W,1,00,00.00,0.0,M,0,M,0,*55
$GPRMC,091445,A,5619.9475,N,00622.3684,W,000.0,000.0,130725,00,*b
$GPGGA,091455.3,5619.9317,N,00622.3671,W,1,00,00.00,0.0,M,0,M,0,*5d
$GPRMC,091455,A,5619.9317,N,00622.3671,W,000.0,000.0,130725,00,*3
$GPGGA,091505.3,5619.9147,N,00622.3669,W,1,00,00.00,0.0,M,0,M,0,*57
$GPRMC,091505,A,5619.9147,N,00622.3669,W,000.0,000.0,130725,00,*9
$GPGGA,091515.3,5619.8978,N,00622.3710,W,1,00,00.00,0.0,M,0,M,0,*5c
$GPRMC,091515,A,5619.8978,N,00622.3710,W,000.0,000.0,130725,00,*2
$GPGGA,091525.3,5619.8808,N,00622.3785,W,1,00,00.00,0.0,M,0,M,0,*55
$GPRMC,091525,A,5619.8808,N,00622.3785,W,000.0,000.0,130725,00,*b
$GPGGA,091539.0,5619.8544,N,00622.3892,W,1,00,00.00,0.0,M,0,M,0,*57
$GPRMC,091539,A,5619.8544,N,00622.3892,W,000.0,000.0,130725,00,*a
$GPGGA,091544.0,5619.8478,N,00622.3942,W,1,00,00.00,0.0,M,0,M,0,*5f
$GPRMC,091544,A,5619.8478,N,00622.3942,W,000.0,000.0,130725,00,*2
$GPGGA,091549.0,5619.8386,N,00622.3965,W,1,00,00.00,0.0,M,0,M,0,*51
$GPRMC,091549,A,5619.8386,N,00622.3965,W,000.0,000.0,130725,00,*c
$GPGGA,091554.0,5619.8306,N,00622.3989,W,1,00,00.00,0.0,M,0,M,0,*57
$GPRMC,091554,A,5619.8306,N,00622.3989,W,000.0,000.0,130725,00,*a
$GPGGA,091559.0,5619.8227,N,00622.4016,W,1,00,00.00,0.0,M,0,M,0,*50
$GPRMC,091559,A,5619.8227,N,00622.4016,W,000.0,000.0,130725,00,*d
$GPGGA,091604.8,5619.8130,N,00622.4063,W,1,00,00.00,0.0,M,0,M,0,*54
$GPRMC,091604,A,5619.8130,N,00622.4063,W,000.0,000.0,130725,00,*1
$GPGGA,091622.2,5619.7860,N,00622.4101,W,1,00,00.00,0.0,M,0,M,0,*5c
$GPRMC,091622,A,5619.7860,N,00622.4101,W,000.0,000.0,130725,00,*3
$GPGGA,091632.3,5619.7700,N,00622.4141,W,1,00,00.00,0.0,M,0,M,0,*51
$GPRMC,091632,A,5619.7700,N,00622.4141,W,000.0,000.0,130725,00,*f
$GPGGA,091642.3,5619.7535,N,00622.4187,W,1,00,00.00,0.0,M,0,M,0,*58
$GPRMC,091642,A,5619.7535,N,00622.4187,W,000.0,000.0,130725,00,*6
$GPGGA,091652.3,5619.7374,N,00622.4263,W,1,00,00.00,0.0,M,0,M,0,*53
$GPRMC,091652,A,5619.7374,N,00622.4263,W,000.0,000.0,130725,00,*d
$GPGGA,091702.3,5619.7211,N,00622.4355,W,1,00,00.00,0.0,M,0,M,0,*51
$GPRMC,091702,A,5619.7211,N,00622.4355,W,000.0,000.0,130725,00,*f
$GPGGA,091712.3,5619.7048,N,00622.4447,W,1,00,00.00,0.0,M,0,M,0,*5a
$GPRMC,091712,A,5619.7048,N,00622.4447,W,000.0,000.0,130725,00,*4
$GPGGA,091722.3,5619.6897,N,00622.4549,W,1,00,00.00,0.0,M,0,M,0,*5d
$GPRMC,091722,A,5619.6897,N,00622.4549,W,000.0,000.0,130725,00,*3
$GPGGA,091732.3,5619.6734,N,00622.4615,W,1,00,00.00,0.0,M,0,M,0,*50
$GPRMC,091732,A,5619.6734,N,00622.4615,W,000.0,000.0,130725,00,*e
$GPGGA,091829.8,5619.5914,N,00622.5005,W,1,00,00.00,0.0,M,0,M,0,*57
$GPRMC,091829,A,5619.5914,N,00622.5005,W,000.0,000.0,130725,00,*2
$GPGGA,091842.3,5619.5573,N,00622.5156,W,1,00,00.00,0.0,M,0,M,0,*5b
$GPRMC,091842,A,5619.5573,N,00622.5156,W,000.0,000.0,130725,00,*5
$GPGGA,091852.4,5619.5408,N,00622.5197,W,1,00,00.00,0.0,M,0,M,0,*5d
$GPRMC,091852,A,5619.5408,N,00622.5197,W,000.0,000.0,130725,00,*4
$GPGGA,091912.3,5619.5139,N,00622.5397,W,1,00,00.00,0.0,M,0,M,0,*5a
$GPRMC,091912,A,5619.5139,N,00622.5397,W,000.0,000.0,130725,00,*4
$GPGGA,091922.3,5619.4966,N,00622.5519,W,1,00,00.00,0.0,M,0,M,0,*5a
$GPRMC,091922,A,5619.4966,N,00622.5519,W,000.0,000.0,130725,00,*4
$GPGGA,091932.3,5619.4809,N,00622.5678,W,1,00,00.00,0.0,M,0,M,0,*57
$GPRMC,091932,A,5619.4809,N,00622.5678,W,000.0,000.0,130725,00,*9
$GPGGA,091942.3,5619.4662,N,00622.5842,W,1,00,00.00,0.0,M,0,M,0,*54
$GPRMC,091942,A,5619.4662,N,00622.5842,W,000.0,000.0,130725,00,*a
$GPGGA,091952.3,5619.4506,N,00622.5930,W,1,00,00.00,0.0,M,0,M,0,*50
$GPRMC,091952,A,5619.4506,N,00622.5930,W,000.0,000.0,130725,00,*e
$GPGGA,092002.3,5619.4353,N,00622.5984,W,1,00,00.00,0.0,M,0,M,0,*56
$GPRMC,092002,A,5619.4353,N,00622.5984,W,000.0,000.0,130725,00,*8
$GPGGA,092012.3,5619.4181,N,00622.6036,W,1,00,00.00,0.0,M,0,M,0,*59
$GPRMC,092012,A,5619.4181,N,00622.6036,W,000.0,000.0,130725,00,*7
$GPGGA,092022.3,5619.4020,N,00622.6128,W,1,00,00.00,0.0,M,0,M,0,*5e
$GPRMC,092022,A,5619.4020,N,00622.6128,W,000.0,000.0,130725,00,*0
$GPGGA,092032.3,5619.3868,N,00622.6250,W,1,00,00.00,0.0,M,0,M,0,*50
$GPRMC,092032,A,5619.3868,N,00622.6250,W,000.0,000.0,130725,00,*e
$GPGGA,092042.3,5619.3743,N,00622.6453,W,1,00,00.00,0.0,M,0,M,0,*54
$GPRMC,092042,A,5619.3743,N,00622.6453,W,000.0,000.0,130725,00,*a
$GPGGA,092052.2,5619.3669,N,00622.6682,W,1,00,00.00,0.0,M,0,M,0,*53
$GPRMC,092052,A,5619.3669,N,00622.6682,W,000.0,000.0,130725,00,*c
$GPGGA,092102.3,5619.3633,N,00622.6926,W,1,00,00.00,0.0,M,0,M,0,*58
$GPRMC,092102,A,5619.3633,N,00622.6926,W,000.0,000.0,130725,00,*6
$GPGGA,092112.3,5619.3628,N,00622.7096,W,1,00,00.00,0.0,M,0,M,0,*50
$GPRMC,092112,A,5619.3628,N,00622.7096,W,000.0,000.0,130725,00,*e
$GPGGA,092122.3,5619.3658,N,00622.7316,W,1,00,00.00,0.0,M,0,M,0,*5f
$GPRMC,092122,A,5619.3658,N,00622.7316,W,000.0,000.0,130725,00,*1
$GPGGA,092132.3,5619.3708,N,00622.7522,W,1,00,00.00,0.0,M,0,M,0,*5b
$GPRMC,092132,A,5619.3708,N,00622.7522,W,000.0,000.0,130725,00,*5
$GPGGA,092142.4,5619.3758,N,00622.7727,W,1,00,00.00,0.0,M,0,M,0,*59
$GPRMC,092142,A,5619.3758,N,00622.7727,W,000.0,000.0,130725,00,*0
$GPGGA,092152.3,5619.3792,N,00622.7967,W,1,00,00.00,0.0,M,0,M,0,*53
$GPRMC,092152,A,5619.3792,N,00622.7967,W,000.0,000.0,130725,00,*d
$GPGGA,092202.3,5619.3806,N,00622.8208,W,1,00,00.00,0.0,M,0,M,0,*5a
$GPRMC,092202,A,5619.3806,N,00622.8208,W,000.0,000.0,130725,00,*4
$GPGGA,092212.4,5619.3801,N,00622.8440,W,1,00,00.00,0.0,M,0,M,0,*51
$GPRMC,092212,A,5619.3801,N,00622.8440,W,000.0,000.0,130725,00,*8
$GPGGA,092241.2,5619.3745,N,00622.8987,W,1,00,00.00,0.0,M,0,M,0,*58
$GPRMC,092241,A,5619.3745,N,00622.8987,W,000.0,000.0,130725,00,*7
$GPGGA,092246.5,5619.3644,N,00622.9276,W,1,00,00.00,0.0,M,0,M,0,*5c
$GPRMC,092246,A,5619.3644,N,00622.9276,W,000.0,000.0,130725,00,*4
$GPGGA,092251.0,5619.3582,N,00622.9449,W,1,00,00.00,0.0,M,0,M,0,*5c
$GPRMC,092251,A,5619.3582,N,00622.9449,W,000.0,000.0,130725,00,*1
$GPGGA,092305.4,5619.3449,N,00622.9735,W,1,00,00.00,0.0,M,0,M,0,*56
$GPRMC,092305,A,5619.3449,N,00622.9735,W,000.0,000.0,130725,00,*f
$GPGGA,092315.4,5619.3314,N,00622.9944,W,1,00,00.00,0.0,M,0,M,0,*50
$GPRMC,092315,A,5619.3314,N,00622.9944,W,000.0,000.0,130725,00,*9
$GPGGA,092334.3,5619.3147,N,00623.0189,W,1,00,00.00,0.0,M,0,M,0,*51
$GPRMC,092334,A,5619.3147,N,00623.0189,W,000.0,000.0,130725,00,*f
$GPGGA,092344.4,5619.2988,N,00623.0376,W,1,00,00.00,0.0,M,0,M,0,*59
$GPRMC,092344,A,5619.2988,N,00623.0376,W,000.0,000.0,130725,00,*0
$GPGGA,092355.4,5619.2631,N,00623.0668,W,1,00,00.00,0.0,M,0,M,0,*5e
$GPRMC,092355,A,5619.2631,N,00623.0668,W,000.0,000.0,130725,00,*7
$GPGGA,092405.4,5619.2445,N,00623.0803,W,1,00,00.00,0.0,M,0,M,0,*5e
$GPRMC,092405,A,5619.2445,N,00623.0803,W,000.0,000.0,130725,00,*7
$GPGGA,092415.4,5619.2262,N,00623.0961,W,1,00,00.00,0.0,M,0,M,0,*59
$GPRMC,092415,A,5619.2262,N,00623.0961,W,000.0,000.0,130725,00,*0
$GPGGA,092425.4,5619.2079,N,00623.1125,W,1,00,00.00,0.0,M,0,M,0,*5b
$GPRMC,092425,A,5619.2079,N,00623.1125,W,000.0,000.0,130725,00,*2
$GPGGA,092435.4,5619.1895,N,00623.1283,W,1,00,00.00,0.0,M,0,M,0,*5c
$GPRMC,092435,A,5619.1895,N,00623.1283,W,000.0,000.0,130725,00,*5
$GPGGA,092445.4,5619.1711,N,00623.1438,W,1,00,00.00,0.0,M,0,M,0,*5e
$GPRMC,092445,A,5619.1711,N,00623.1438,W,000.0,000.0,130725,00,*7
$GPGGA,092455.4,5619.1527,N,00623.1592,W,1,00,00.00,0.0,M,0,M,0,*59
$GPRMC,092455,A,5619.1527,N,00623.1592,W,000.0,000.0,130725,00,*0
$GPGGA,092505.4,5619.1343,N,00623.1744,W,1,00,00.00,0.0,M,0,M,0,*50
$GPRMC,092505,A,5619.1343,N,00623.1744,W,000.0,000.0,130725,00,*9
$GPGGA,092515.4,5619.1158,N,00623.1905,W,1,00,00.00,0.0,M,0,M,0,*52
$GPRMC,092515,A,5619.1158,N,00623.1905,W,000.0,000.0,130725,00,*b
$GPGGA,092525.4,5619.0972,N,00623.2071,W,1,00,00.00,0.0,M,0,M,0,*59
$GPRMC,092525,A,5619.0972,N,00623.2071,W,000.0,000.0,130725,00,*0
$GPGGA,092535.4,5619.0784,N,00623.2234,W,1,00,00.00,0.0,M,0,M,0,*5c
$GPRMC,092535,A,5619.0784,N,00623.2234,W,000.0,000.0,130725,00,*5
$GPGGA,092545.4,5619.0587,N,00623.2404,W,1,00,00.00,0.0,M,0,M,0,*5f
$GPRMC,092545,A,5619.0587,N,00623.2404,W,000.0,000.0,130725,00,*6
$GPGGA,092555.3,5619.0373,N,00623.2593,W,1,00,00.00,0.0,M,0,M,0,*5b
$GPRMC,092555,A,5619.0373,N,00623.2593,W,000.0,000.0,130725,00,*5
$GPGGA,092605.4,5619.0151,N,00623.2785,W,1,00,00.00,0.0,M,0,M,0,*5d
$GPRMC,092605,A,5619.0151,N,00623.2785,W,000.0,000.0,130725,00,*4
$GPGGA,092615.4,5618.9936,N,00623.2986,W,1,00,00.00,0.0,M,0,M,0,*50
$GPRMC,092615,A,5618.9936,N,00623.2986,W,000.0,000.0,130725,00,*9
$GPGGA,092625.4,5618.9710,N,00623.3171,W,1,00,00.00,0.0,M,0,M,0,*58
$GPRMC,092625,A,5618.9710,N,00623.3171,W,000.0,000.0,130725,00,*1
$GPGGA,092635.3,5618.9480,N,00623.3374,W,1,00,00.00,0.0,M,0,M,0,*53
$GPRMC,092635,A,5618.9480,N,00623.3374,W,000.0,000.0,130725,00,*d
$GPGGA,092642.7,5618.9304,N,00623.3618,W,1,00,00.00,0.0,M,0,M,0,*53
$GPRMC,092642,A,5618.9304,N,00623.3618,W,000.0,000.0,130725,00,*9
$GPGGA,092655.0,5618.8965,N,00623.3810,W,1,00,00.00,0.0,M,0,M,0,*58
$GPRMC,092655,A,5618.8965,N,00623.3810,W,000.0,000.0,130725,00,*5
$GPGGA,092702.0,5618.8799,N,00623.3899,W,1,00,00.00,0.0,M,0,M,0,*57
$GPRMC,092702,A,5618.8799,N,00623.3899,W,000.0,000.0,130725,00,*a
$GPGGA,092707.4,5618.8657,N,00623.4110,W,1,00,00.00,0.0,M,0,M,0,*5a
$GPRMC,092707,A,5618.8657,N,00623.4110,W,000.0,000.0,130725,00,*3
$GPGGA,092712.0,5618.8569,N,00623.4156,W,1,00,00.00,0.0,M,0,M,0,*56
$GPRMC,092712,A,5618.8569,N,00623.4156,W,000.0,000.0,130725,00,*b
$GPGGA,092720.2,5618.8406,N,00623.4324,W,1,00,00.00,0.0,M,0,M,0,*5a
$GPRMC,092720,A,5618.8406,N,00623.4324,W,000.0,000.0,130725,00,*5
$GPGGA,092730.3,5618.8182,N,00623.4472,W,1,00,00.00,0.0,M,0,M,0,*57
$GPRMC,092730,A,5618.8182,N,00623.4472,W,000.0,000.0,130725,00,*9
$GPGGA,092740.3,5618.7934,N,00623.4684,W,1,00,00.00,0.0,M,0,M,0,*51
