@OM Digital Solutions/+0000/+0000
$GPGGA,125913.7,5619.5404,N,00553.3392,W,1,00,00.00,0.0,M,0,M,0,*5c
$GPRMC,125913,A,5619.5404,N,00553.3392,W,000.0,000.0,130725,00,*6
$GPGGA,125923.5,5619.5310,N,00553.3587,W,1,00,00.00,0.0,M,0,M,0,*5d
$GPRMC,125923,A,5619.5310,N,00553.3587,W,000.0,000.0,130725,00,*5
$GPGGA,125933.5,5619.5223,N,00553.3827,W,1,00,00.00,0.0,M,0,M,0,*5a
$GPRMC,125933,A,5619.5223,N,00553.3827,W,000.0,000.0,130725,00,*2
$GPGGA,125943.5,5619.5135,N,00553.4067,W,1,00,00.00,0.0,M,0,M,0,*52
$GPRMC,125943,A,5619.5135,N,00553.4067,W,000.0,000.0,130725,00,*a
$GPGGA,125953.5,5619.5047,N,00553.4314,W,1,00,00.00,0.0,M,0,M,0,*50
$GPRMC,125953,A,5619.5047,N,00553.4314,W,000.0,000.0,130725,00,*8
$GPGGA,130013.6,5619.4885,N,00553.4768,W,1,00,00.00,0.0,M,0,M,0,*52
$GPRMC,130013,A,5619.4885,N,00553.4768,W,000.0,000.0,130725,00,*9
$GPGGA,130023.6,5619.4785,N,00553.5017,W,1,00,00.00,0.0,M,0,M,0,*50
$GPRMC,130023,A,5619.4785,N,00553.5017,W,000.0,000.0,130725,00,*b
$GPGGA,130033.6,5619.4651,N,00553.5243,W,1,00,00.00,0.0,M,0,M,0,*5a
$GPRMC,130033,A,5619.4651,N,00553.5243,W,000.0,000.0,130725,00,*1
$GPGGA,130043.6,5619.4486,N,00553.5443,W,1,00,00.00,0.0,M,0,M,0,*53
$GPRMC,130043,A,5619.4486,N,00553.5443,W,000.0,000.0,130725,00,*8
$GPGGA,130053.5,5619.4322,N,00553.5660,W,1,00,00.00,0.0,M,0,M,0,*5b
$GPRMC,130053,A,5619.4322,N,00553.5660,W,000.0,000.0,130725,00,*3
$GPGGA,130103.5,5619.4118,N,00553.5846,W,1,00,00.00,0.0,M,0,M,0,*5e
$GPRMC,130103,A,5619.4118,N,00553.5846,W,000.0,000.0,130725,00,*6
$GPGGA,130113.6,5619.3904,N,00553.6003,W,1,00,00.00,0.0,M,0,M,0,*54
$GPRMC,130113,A,5619.3904,N,00553.6003,W,000.0,000.0,130725,00,*f
$GPGGA,130123.6,5619.3699,N,00553.6179,W,1,00,00.00,0.0,M,0,M,0,*50
$GPRMC,130123,A,5619.3699,N,00553.6179,W,000.0,000.0,130725,00,*b
$GPGGA,130133.6,5619.3495,N,00553.6375,W,1,00,00.00,0.0,M,0,M,0,*51
$GPRMC,130133,A,5619.3495,N,00553.6375,W,000.0,000.0,130725,00,*a
$GPGGA,130143.6,5619.3287,N,00553.6502,W,1,00,00.00,0.0,M,0,M,0,*55
$GPRMC,130143,A,5619.3287,N,00553.6502,W,000.0,000.0,130725,00,*e
$GPGGA,130203.5,5619.2832,N,00553.6626,W,1,00,00.00,0.0,M,0,M,0,*51
$GPRMC,130203,A,5619.2832,N,00553.6626,W,000.0,000.0,130725,00,*9
$GPGGA,130213.6,5619.2603,N,00553.6672,W,1,00,00.00,0.0,M,0,M,0,*5e
$GPRMC,130213,A,5619.2603,N,00553.6672,W,000.0,000.0,130725,00,*5
$GPGGA,130223.6,5619.2378,N,00553.6733,W,1,00,00.00,0.0,M,0,M,0,*50
$GPRMC,130223,A,5619.2378,N,00553.6733,W,000.0,000.0,130725,00,*b
$GPGGA,130233.6,5619.2155,N,00553.6796,W,1,00,00.00,0.0,M,0,M,0,*53
$GPRMC,130233,A,5619.2155,N,00553.6796,W,000.0,000.0,130725,00,*8
$GPGGA,130243.7,5619.1926,N,00553.6830,W,1,00,00.00,0.0,M,0,M,0,*59
$GPRMC,130243,A,5619.1926,N,00553.6830,W,000.0,000.0,130725,00,*3
$GPGGA,130253.6,5619.1699,N,00553.6802,W,1,00,00.00,0.0,M,0,M,0,*53
$GPRMC,130253,A,5619.1699,N,00553.6802,W,000.0,000.0,130725,00,*8
$GPGGA,130303.7,5619.1476,N,00553.6785,W,1,00,00.00,0.0,M,0,M,0,*55
$GPRMC,130303,A,5619.1476,N,00553.6785,W,000.0,000.0,130725,00,*f
$GPGGA,130313.6,5619.1253,N,00553.6747,W,1,00,00.00,0.0,M,0,M,0,*5a
$GPRMC,130313,A,5619.1253,N,00553.6747,W,000.0,000.0,130725,00,*1
$GPGGA,130323.6,5619.1044,N,00553.6632,W,1,00,00.00,0.0,M,0,M,0,*5e
$GPRMC,130323,A,5619.1044,N,00553.6632,W,000.0,000.0,130725,00,*5
$GPGGA,130333.6,5619.0838,N,00553.6527,W,1,00,00.00,0.0,M,0,M,0,*5a
$GPRMC,130333,A,5619.0838,N,00553.6527,W,000.0,000.0,130725,00,*1
$GPGGA,130353.5,5619.0435,N,00553.6206,W,1,00,00.00,0.0,M,0,M,0,*5a
$GPRMC,130353,A,5619.0435,N,00553.6206,W,000.0,000.0,130725,00,*2
$GPGGA,130403.6,5619.0238,N,00553.6000,W,1,00,00.00,0.0,M,0,M,0,*54
$GPRMC,130403,A,5619.0238,N,00553.6000,W,000.0,000.0,130725,00,*f
$GPGGA,130413.6,5619.0057,N,00553.5786,W,1,00,00.00,0.0,M,0,M,0,*54
$GPRMC,130413,A,5619.0057,N,00553.5786,W,000.0,000.0,130725,00,*f
$GPGGA,130423.7,5618.9851,N,00553.5559,W,1,00,00.00,0.0,M,0,M,0,*50
$GPRMC,130423,A,5618.9851,N,00553.5559,W,000.0,000.0,130725,00,*a
$GPGGA,130433.5,5618.9711,N,00553.5380,W,1,00,00.00,0.0,M,0,M,0,*5a
$GPRMC,130433,A,5618.9711,N,00553.5380,W,000.0,000.0,130725,00,*2
$GPGGA,130443.5,5618.9546,N,00553.5217,W,1,00,00.00,0.0,M,0,M,0,*52
$GPRMC,130443,A,5618.9546,N,00553.5217,W,000.0,000.0,130725,00,*a
$GPGGA,130454.0,5618.9499,N,00553.5132,W,1,00,00.00,0.0,M,0,M,0,*56
$GPRMC,130454,A,5618.9499,N,00553.5132,W,000.0,000.0,130725,00,*b
$GPGGA,130519.6,5618.8802,N,00553.4424,W,1,00,00.00,0.0,M,0,M,0,*54
$GPRMC,130519,A,5618.8802,N,00553.4424,W,000.0,000.0,130725,00,*f
$GPGGA,130529.6,5618.8742,N,00553.4312,W,1,00,00.00,0.0,M,0,M,0,*5e
$GPRMC,130529,A,5618.8742,N,00553.4312,W,000.0,000.0,130725,00,*5
$GPGGA,130539.6,5618.8575,N,00553.4014,W,1,00,00.00,0.0,M,0,M,0,*5c
$GPRMC,130539,A,5618.8575,N,00553.4014,W,000.0,000.0,130725,00,*7
$GPGGA,130549.5,5618.8391,N,00553.3728,W,1,00,00.00,0.0,M,0,M,0,*5b
$GPRMC,130549,A,5618.8391,N,00553.3728,W,000.0,000.0,130725,00,*3
$GPGGA,130559.5,5618.8228,N,00553.3488,W,1,00,00.00,0.0,M,0,M,0,*50
$GPRMC,130559,A,5618.8228,N,00553.3488,W,000.0,000.0,130725,00,*8
$GPGGA,130609.6,5618.7998,N,00553.3292,W,1,00,00.00,0.0,M,0,M,0,*57
$GPRMC,130609,A,5618.7998,N,00553.3292,W,000.0,000.0,130725,00,*c
$GPGGA,130619.5,5618.7816,N,00553.3044,W,1,00,00.00,0.0,M,0,M,0,*5b
$GPRMC,130619,A,5618.7816,N,00553.3044,W,000.0,000.0,130725,00,*3
$GPGGA,130629.7,5618.7631,N,00553.2710,W,1,00,00.00,0.0,M,0,M,0,*56
$GPRMC,130629,A,5618.7631,N,00553.2710,W,000.0,000.0,130725,00,*c
$GPGGA,130639.5,5618.7454,N,00553.2374,W,1,00,00.00,0.0,M,0,M,0,*52
$GPRMC,130639,A,5618.7454,N,00553.2374,W,000.0,000.0,130725,00,*a
$GPGGA,130649.5,5618.7306,N,00553.2116,W,1,00,00.00,0.0,M,0,M,0,*53
$GPRMC,130649,A,5618.7306,N,00553.2116,W,000.0,000.0,130725,00,*b
$GPGGA,130659.6,5618.7142,N,00553.1788,W,1,00,00.00,0.0,M,0,M,0,*51
$GPRMC,130659,A,5618.7142,N,00553.1788,W,000.0,000.0,130725,00,*a
$GPGGA,130709.7,5618.6992,N,00553.1506,W,1,00,00.00,0.0,M,0,M,0,*54
$GPRMC,130709,A,5618.6992,N,00553.1506,W,000.0,000.0,130725,00,*e
$GPGGA,130719.6,5618.6846,N,00553.1183,W,1,00,00.00,0.0,M,0,M,0,*55
$GPRMC,130719,A,5618.6846,N,00553.1183,W,000.0,000.0,130725,00,*e
$GPGGA,130729.5,5618.6724,N,00553.0882,W,1,00,00.00,0.0,M,0,M,0,*57
$GPRMC,130729,A,5618.6724,N,00553.0882,W,000.0,000.0,130725,00,*f
$GPGGA,130739.5,5618.6597,N,00553.0557,W,1,00,00.00,0.0,M,0,M,0,*59
$GPRMC,130739,A,5618.6597,N,00553.0557,W,000.0,000.0,130725,00,*1
$GPGGA,130749.6,5618.6493,N,00553.0245,W,1,00,00.00,0.0,M,0,M,0,*5c
$GPRMC,130749,A,5618.6493,N,00553.0245,W,000.0,000.0,130725,00,*7
$GPGGA,130759.6,5618.6376,N,00552.9895,W,1,00,00.00,0.0,M,0,M,0,*5e
$GPRMC,130759,A,5618.6376,N,00552.9895,W,000.0,000.0,130725,00,*5
$GPGGA,130809.6,5618.6260,N,00552.9567,W,1,00,00.00,0.0,M,0,M,0,*52
$GPRMC,130809,A,5618.6260,N,00552.9567,W,000.0,000.0,130725,00,*9
$GPGGA,130819.6,5618.6140,N,00552.9222,W,1,00,00.00,0.0,M,0,M,0,*54
$GPRMC,130819,A,5618.6140,N,00552.9222,W,000.0,000.0,130725,00,*f
$GPGGA,130829.6,5618.6036,N,00552.8896,W,1,00,00.00,0.0,M,0,M,0,*53
$GPRMC,130829,A,5618.6036,N,00552.8896,W,000.0,000.0,130725,00,*8
$GPGGA,130839.6,5618.5919,N,00552.8548,W,1,00,00.00,0.0,M,0,M,0,*5b
$GPRMC,130839,A,5618.5919,N,00552.8548,W,000.0,000.0,130725,00,*0
$GPGGA,130849.6,5618.5795,N,00552.8210,W,1,00,00.00,0.0,M,0,M,0,*5c
$GPRMC,130849,A,5618.5795,N,00552.8210,W,000.0,000.0,130725,00,*7
$GPGGA,130859.6,5618.5693,N,00552.7878,W,1,00,00.00,0.0,M,0,M,0,*51
$GPRMC,130859,A,5618.5693,N,00552.7878,W,000.0,000.0,130725,00,*a
$GPGGA,130909.6,5618.5575,N,00552.7564,W,1,00,00.00,0.0,M,0,M,0,*5e
$GPRMC,130909,A,5618.5575,N,00552.7564,W,000.0,000.0,130725,00,*5
$GPGGA,130919.6,5618.5457,N,00552.7250,W,1,00,00.00,0.0,M,0,M,0,*5e
$GPRMC,130919,A,5618.5457,N,00552.7250,W,000.0,000.0,130725,00,*5
$GPGGA,130929.6,5618.5338,N,00552.6878,W,1,00,00.00,0.0,M,0,M,0,*52
$GPRMC,130929,A,5618.5338,N,00552.6878,W,000.0,000.0,130725,00,*9
$GPGGA,130939.6,5618.5248,N,00552.6526,W,1,00,00.00,0.0,M,0,M,0,*53
$GPRMC,130939,A,5618.5248,N,00552.6526,W,000.0,000.0,130725,00,*8
$GPGGA,130949.6,5618.5172,N,00552.6173,W,1,00,00.00,0.0,M,0,M,0,*5a
$GPRMC,130949,A,5618.5172,N,00552.6173,W,000.0,000.0,130725,00,*1
$GPGGA,130959.6,5618.5095,N,00552.5792,W,1,00,00.00,0.0,M,0,M,0,*59
$GPRMC,130959,A,5618.5095,N,00552.5792,W,000.0,000.0,130725,00,*2
$GPGGA,131009.6,5618.5022,N,00552.5417,W,1,00,00.00,0.0,M,0,M,0,*56
$GPRMC,131009,A,5618.5022,N,00552.5417,W,000.0,000.0,130725,00,*d
$GPGGA,131019.6,5618.4924,N,00552.5031,W,1,00,00.00,0.0,M,0,M,0,*59
$GPRMC,131019,A,5618.4924,N,00552.5031,W,000.0,000.0,130725,00,*2
$GPGGA,131029.6,5618.4848,N,00552.4664,W,1,00,00.00,0.0,M,0,M,0,*56
$GPRMC,131029,A,5618.4848,N,00552.4664,W,000.0,000.0,130725,00,*d
$GPGGA,131039.6,5618.4773,N,00552.4317,W,1,00,00.00,0.0,M,0,M,0,*51
$GPRMC,131039,A,5618.4773,N,00552.4317,W,000.0,000.0,130725,00,*a
$GPGGA,131049.6,5618.4696,N,00552.3934,W,1,00,00.00,0.0,M,0,M,0,*50
$GPRMC,131049,A,5618.4696,N,00552.3934,W,000.0,000.0,130725,00,*b
$GPGGA,131059.6,5618.4610,N,00552.3577,W,1,00,00.00,0.0,M,0,M,0,*54
$GPRMC,131059,A,5618.4610,N,00552.3577,W,000.0,000.0,130725,00,*f
$GPGGA,131109.6,5618.4522,N,00552.3195,W,1,00,00.00,0.0,M,0,M,0,*5a
$GPRMC,131109,A,5618.4522,N,00552.3195,W,000.0,000.0,130725,00,*1
$GPGGA,131119.6,5618.4455,N,00552.2844,W,1,00,00.00,0.0,M,0,M,0,*5e
$GPRMC,131119,A,5618.4455,N,00552.2844,W,000.0,000.0,130725,00,*5
$GPGGA,131129.6,5618.4403,N,00552.2543,W,1,00,00.00,0.0,M,0,M,0,*54
$GPRMC,131129,A,5618.4403,N,00552.2543,W,000.0,000.0,130725,00,*f
$GPGGA,131139.6,5618.4331,N,00552.2191,W,1,00,00.00,0.0,M,0,M,0,*58
$GPRMC,131139,A,5618.4331,N,00552.2191,W,000.0,000.0,130725,00,*3
$GPGGA,131149.6,5618.4245,N,00552.1862,W,1,00,00.00,0.0,M,0,M,0,*5b
$GPRMC,131149,A,5618.4245,N,00552.1862,W,000.0,000.0,130725,00,*0
$GPGGA,131159.6,5618.4161,N,00552.1508,W,1,00,00.00,0.0,M,0,M,0,*5e
$GPRMC,131159,A,5618.4161,N,00552.1508,W,000.0,000.0,130725,00,*5
$GPGGA,131209.5,5618.4099,N,00552.1134,W,1,00,00.00,0.0,M,0,M,0,*56
$GPRMC,131209,A,5618.4099,N,00552.1134,W,000.0,000.0,130725,00,*e
$GPGGA,131226.4,5618.4091,N,00552.0969,W,1,00,00.00,0.0,M,0,M,0,*53
$GPRMC,131226,A,5618.4091,N,00552.0969,W,000.0,000.0,130725,00,*a
$GPGGA,131430.9,5618.2737,N,00551.5942,W,1,00,00.00,0.0,M,0,M,0,*5d
$GPRMC,131430,A,5618.2737,N,00551.5942,W,000.0,000.0,130725,00,*9
$GPGGA,131441.0,5618.2635,N,00551.5601,W,1,00,00.00,0.0,M,0,M,0,*59
$GPRMC,131441,A,5618.2635,N,00551.5601,W,000.0,000.0,130725,00,*4
$GPGGA,131450.6,5618.2533,N,00551.5305,W,1,00,00.00,0.0,M,0,M,0,*5b
$GPRMC,131450,A,5618.2533,N,00551.5305,W,000.0,000.0,130725,00,*0
$GPGGA,131500.6,5618.2420,N,00551.4941,W,1,00,00.00,0.0,M,0,M,0,*57
$GPRMC,131500,A,5618.2420,N,00551.4941,W,000.0,000.0,130725,00,*c
$GPGGA,131510.6,5618.2312,N,00551.4582,W,1,00,00.00,0.0,M,0,M,0,*53
$GPRMC,131510,A,5618.2312,N,00551.4582,W,000.0,000.0,130725,00,*8
$GPGGA,131520.7,5618.2209,N,00551.4207,W,1,00,00.00,0.0,M,0,M,0,*50
$GPRMC,131520,A,5618.2209,N,00551.4207,W,000.0,000.0,130725,00,*a
$GPGGA,131530.6,5618.2114,N,00551.3821,W,1,00,00.00,0.0,M,0,M,0,*56
$GPRMC,131530,A,5618.2114,N,00551.3821,W,000.0,000.0,130725,00,*d
$GPGGA,131540.6,5618.2038,N,00551.3428,W,1,00,00.00,0.0,M,0,M,0,*5b
$GPRMC,131540,A,5618.2038,N,00551.3428,W,000.0,000.0,130725,00,*0
$GPGGA,131550.6,5618.1950,N,00551.3050,W,1,00,00.00,0.0,M,0,M,0,*55
$GPRMC,131550,A,5618.1950,N,00551.3050,W,000.0,000.0,130725,00,*e
$GPGGA,131600.5,5618.1868,N,00551.2693,W,1,00,00.00,0.0,M,0,M,0,*52
$GPRMC,131600,A,5618.1868,N,00551.2693,W,000.0,000.0,130725,00,*a
$GPGGA,131610.5,5618.1803,N,00551.2339,W,1,00,00.00,0.0,M,0,M,0,*5b
$GPRMC,131610,A,5618.1803,N,00551.2339,W,000.0,000.0,130725,00,*3
$GPGGA,131620.5,5618.1744,N,00551.1978,W,1,00,00.00,0.0,M,0,M,0,*58
$GPRMC,131620,A,5618.1744,N,00551.1978,W,000.0,000.0,130725,00,*0
$GPGGA,131630.5,5618.1685,N,00551.1621,W,1,00,00.00,0.0,M,0,M,0,*56
$GPRMC,131630,A,5618.1685,N,00551.1621,W,000.0,000.0,130725,00,*e
$GPGGA,131640.4,5618.1665,N,00551.1222,W,1,00,00.00,0.0,M,0,M,0,*59
$GPRMC,131640,A,5618.1665,N,00551.1222,W,000.0,000.0,130725,00,*0
$GPGGA,131650.5,5618.1665,N,00551.0825,W,1,00,00.00,0.0,M,0,M,0,*55
$GPRMC,131650,A,5618.1665,N,00551.0825,W,000.0,000.0,130725,00,*d
$GPGGA,131700.4,5618.1699,N,00551.0432,W,1,00,00.00,0.0,M,0,M,0,*59
$GPRMC,131700,A,5618.1699,N,00551.0432,W,000.0,000.0,130725,00,*0
$GPGGA,131710.6,5618.1720,N,00551.0042,W,1,00,00.00,0.0,M,0,M,0,*5a
$GPRMC,131710,A,5618.1720,N,00551.0042,W,000.0,000.0,130725,00,*1
$GPGGA,131720.6,5618.1748,N,00550.9667,W,1,00,00.00,0.0,M,0,M,0,*5e
$GPRMC,131720,A,5618.1748,N,00550.9667,W,000.0,000.0,130725,00,*5
$GPGGA,131730.5,5618.1782,N,00550.9272,W,1,00,00.00,0.0,M,0,M,0,*5a
$GPRMC,131730,A,5618.1782,N,00550.9272,W,000.0,000.0,130725,00,*2
$GPGGA,131740.5,5618.1824,N,00550.8880,W,1,00,00.00,0.0,M,0,M,0,*58
$GPRMC,131740,A,5618.1824,N,00550.8880,W,000.0,000.0,130725,00,*0
$GPGGA,131750.6,5618.1856,N,00550.8471,W,1,00,00.00,0.0,M,0,M,0,*5d
$GPRMC,131750,A,5618.1856,N,00550.8471,W,000.0,000.0,130725,00,*6
$GPGGA,131800.5,5618.1875,N,00550.8066,W,1,00,00.00,0.0,M,0,M,0,*57
$GPRMC,131800,A,5618.1875,N,00550.8066,W,000.0,000.0,130725,00,*f
$GPGGA,131810.6,5618.1898,N,00550.7698,W,1,00,00.00,0.0,M,0,M,0,*5e
$GPRMC,131810,A,5618.1898,N,00550.7698,W,000.0,000.0,130725,00,*5
$GPGGA,131820.5,5618.1920,N,00550.7310,W,1,00,00.00,0.0,M,0,M,0,*59
$GPRMC,131820,A,5618.1920,N,00550.7310,W,000.0,000.0,130725,00,*1
$GPGGA,131833.0,5618.1947,N,00550.6868,W,1,00,00.00,0.0,M,0,M,0,*5a
$GPRMC,131833,A,5618.1947,N,00550.6868,W,000.0,000.0,130725,00,*7
$GPGGA,131840.6,5618.1975,N,00550.6566,W,1,00,00.00,0.0,M,0,M,0,*5a
$GPRMC,131840,A,5618.1975,N,00550.6566,W,000.0,000.0,130725,00,*1
$GPGGA,131850.6,5618.2014,N,00550.6174,W,1,00,00.00,0.0,M,0,M,0,*51
$GPRMC,131850,A,5618.2014,N,00550.6174,W,000.0,000.0,130725,00,*a
$GPGGA,131900.6,5618.2037,N,00550.5736,W,1,00,00.00,0.0,M,0,M,0,*57
$GPRMC,131900,A,5618.2037,N,00550.5736,W,000.0,000.0,130725,00,*c
$GPGGA,131910.6,5618.2083,N,00550.5339,W,1,00,00.00,0.0,M,0,M,0,*52
$GPRMC,131910,A,5618.2083,N,00550.5339,W,000.0,000.0,130725,00,*9
$GPGGA,131920.6,5618.2120,N,00550.4942,W,1,00,00.00,0.0,M,0,M,0,*5e
$GPRMC,131920,A,5618.2120,N,00550.4942,W,000.0,000.0,130725,00,*5
$GPGGA,131930.6,5618.2174,N,00550.4557,W,1,00,00.00,0.0,M,0,M,0,*56
$GPRMC,131930,A,5618.2174,N,00550.4557,W,000.0,000.0,130725,00,*d
$GPGGA,131940.6,5618.2218,N,00550.4171,W,1,00,00.00,0.0,M,0,M,0,*58
$GPRMC,131940,A,5618.2218,N,00550.4171,W,000.0,000.0,130725,00,*3
$GPGGA,131950.6,5618.2267,N,00550.3770,W,1,00,00.00,0.0,M,0,M,0,*51
$GPRMC,131950,A,5618.2267,N,00550.3770,W,000.0,000.0,130725,00,*a
$GPGGA,132000.5,5618.2306,N,00550.3386,W,1,00,00.00,0.0,M,0,M,0,*56
$GPRMC,132000,A,5618.2306,N,00550.3386,W,000.0,000.0,130725,00,*e
$GPGGA,132010.6,5618.2343,N,00550.2974,W,1,00,00.00,0.0,M,0,M,0,*53
$GPRMC,132010,A,5618.2343,N,00550.2974,W,000.0,000.0,130725,00,*8
$GPGGA,132020.6,5618.2385,N,00550.2583,W,1,00,00.00,0.0,M,0,M,0,*5e
$GPRMC,132020,A,5618.2385,N,00550.2583,W,000.0,000.0,130725,00,*5
$GPGGA,132030.6,5618.2431,N,00550.2175,W,1,00,00.00,0.0,M,0,M,0,*5a
$GPRMC,132030,A,5618.2431,N,00550.2175,W,000.0,000.0,130725,00,*1
$GPGGA,132040.6,5618.2470,N,00550.1777,W,1,00,00.00,0.0,M,0,M,0,*5f
$GPRMC,132040,A,5618.2470,N,00550.1777,W,000.0,000.0,130725,00,*4
$GPGGA,132050.6,5618.2514,N,00550.1370,W,1,00,00.00,0.0,M,0,M,0,*5e
$GPRMC,132050,A,5618.2514,N,00550.1370,W,000.0,000.0,130725,00,*5
$GPGGA,132100.5,5618.2568,N,00550.0987,W,1,00,00.00,0.0,M,0,M,0,*51
$GPRMC,132100,A,5618.2568,N,00550.0987,W,000.0,000.0,130725,00,*9
$GPGGA,132110.6,5618.2580,N,00550.0593,W,1,00,00.00,0.0,M,0,M,0,*5c
$GPRMC,132110,A,5618.2580,N,00550.0593,W,000.0,000.0,130725,00,*7
$GPGGA,132751.9,5618.5747,N,00548.5052,W,1,00,00.00,0.0,M,0,M,0,*5a
$GPRMC,132751,A,5618.5747,N,00548.5052,W,000.0,000.0,130725,00,*e
$GPGGA,132801.6,5618.5832,N,00548.4804,W,1,00,00.00,0.0,M,0,M,0,*58
$GPRMC,132801,A,5618.5832,N,00548.4804,W,000.0,000.0,130725,00,*3
$GPGGA,132811.6,5618.5948,N,00548.4465,W,1,00,00.00,0.0,M,0,M,0,*5e
$GPRMC,132811,A,5618.5948,N,00548.4465,W,000.0,000.0,130725,00,*5
$GPGGA,132821.6,5618.6071,N,00548.4109,W,1,00,00.00,0.0,M,0,M,0,*52
$GPRMC,132821,A,5618.6071,N,00548.4109,W,000.0,000.0,130725,00,*9
$GPGGA,132831.6,5618.6194,N,00548.3765,W,1,00,00.00,0.0,M,0,M,0,*52
$GPRMC,132831,A,5618.6194,N,00548.3765,W,000.0,000.0,130725,00,*9
$GPGGA,132841.6,5618.6322,N,00548.3429,W,1,00,00.00,0.0,M,0,M,0,*51
$GPRMC,132841,A,5618.6322,N,00548.3429,W,000.0,000.0,130725,00,*a
$GPGGA,132851.7,5618.6451,N,00548.3090,W,1,00,00.00,0.0,M,0,M,0,*54
$GPRMC,132851,A,5618.6451,N,00548.3090,W,000.0,000.0,130725,00,*e
$GPGGA,132901.6,5618.6579,N,00548.2755,W,1,00,00.00,0.0,M,0,M,0,*55
$GPRMC,132901,A,5618.6579,N,00548.2755,W,000.0,000.0,130725,00,*e
$GPGGA,132911.5,5618.6710,N,00548.2426,W,1,00,00.00,0.0,M,0,M,0,*5d
$GPRMC,132911,A,5618.6710,N,00548.2426,W,000.0,000.0,130725,00,*5
$GPGGA,132921.6,5618.6820,N,00548.2076,W,1,00,00.00,0.0,M,0,M,0,*50
$GPRMC,132921,A,5618.6820,N,00548.2076,W,000.0,000.0,130725,00,*b
$GPGGA,132931.5,5618.6946,N,00548.1732,W,1,00,00.00,0.0,M,0,M,0,*57
$GPRMC,132931,A,5618.6946,N,00548.1732,W,000.0,000.0,130725,00,*f
$GPGGA,132951.6,5618.7224,N,00548.1042,W,1,00,00.00,0.0,M,0,M,0,*5c
$GPRMC,132951,A,5618.7224,N,00548.1042,W,000.0,000.0,130725,00,*7
$GPGGA,133001.4,5618.7364,N,00548.0667,W,1,00,00.00,0.0,M,0,M,0,*56
$GPRMC,133001,A,5618.7364,N,00548.0667,W,000.0,000.0,130725,00,*f
$GPGGA,133011.5,5618.7492,N,00548.0320,W,1,00,00.00,0.0,M,0,M,0,*5e
$GPRMC,133011,A,5618.7492,N,00548.0320,W,000.0,000.0,130725,00,*6
$GPGGA,133021.4,5618.7630,N,00547.9980,W,1,00,00.00,0.0,M,0,M,0,*50
$GPRMC,133021,A,5618.7630,N,00547.9980,W,000.0,000.0,130725,00,*9
$GPGGA,133031.4,5618.7765,N,00547.9642,W,1,00,00.00,0.0,M,0,M,0,*51
$GPRMC,133031,A,5618.7765,N,00547.9642,W,000.0,000.0,130725,00,*8
$GPGGA,133041.4,5618.7893,N,00547.9302,W,1,00,00.00,0.0,M,0,M,0,*51
$GPRMC,133041,A,5618.7893,N,00547.9302,W,000.0,000.0,130725,00,*8
$GPGGA,133051.5,5618.8020,N,00547.8970,W,1,00,00.00,0.0,M,0,M,0,*50
$GPRMC,133051,A,5618.8020,N,00547.8970,W,000.0,000.0,130725,00,*8
$GPGGA,133101.5,5618.8140,N,00547.8630,W,1,00,00.00,0.0,M,0,M,0,*58
$GPRMC,133101,A,5618.8140,N,00547.8630,W,000.0,000.0,130725,00,*0
$GPGGA,133121.5,5618.8379,N,00547.8002,W,1,00,00.00,0.0,M,0,M,0,*55
$GPRMC,133121,A,5618.8379,N,00547.8002,W,000.0,000.0,130725,00,*d
$GPGGA,133131.5,5618.8516,N,00547.7644,W,1,00,00.00,0.0,M,0,M,0,*50
$GPRMC,133131,A,5618.8516,N,00547.7644,W,000.0,000.0,130725,00,*8
$GPGGA,133141.6,5618.8646,N,00547.7308,W,1,00,00.00,0.0,M,0,M,0,*5f
$GPRMC,133141,A,5618.8646,N,00547.7308,W,000.0,000.0,130725,00,*4
$GPGGA,133151.5,5618.8775,N,00547.6964,W,1,00,00.00,0.0,M,0,M,0,*5d
$GPRMC,133151,A,5618.8775,N,00547.6964,W,000.0,000.0,130725,00,*5
$GPGGA,133201.5,5618.8906,N,00547.6622,W,1,00,00.00,0.0,M,0,M,0,*5c
$GPRMC,133201,A,5618.8906,N,00547.6622,W,000.0,000.0,130725,00,*4
$GPGGA,133211.5,5618.9033,N,00547.6279,W,1,00,00.00,0.0,M,0,M,0,*59
$GPRMC,133211,A,5618.9033,N,00547.6279,W,000.0,000.0,130725,00,*1
$GPGGA,133221.5,5618.9158,N,00547.5950,W,1,00,00.00,0.0,M,0,M,0,*55
$GPRMC,133221,A,5618.9158,N,00547.5950,W,000.0,000.0,130725,00,*d
$GPGGA,133231.6,5618.9288,N,00547.5624,W,1,00,00.00,0.0,M,0,M,0,*55
$GPRMC,133231,A,5618.9288,N,00547.5624,W,000.0,000.0,130725,00,*e
$GPGGA,133241.6,5618.9413,N,00547.5262,W,1,00,00.00,0.0,M,0,M,0,*50
$GPRMC,133241,A,5618.9413,N,00547.5262,W,000.0,000.0,130725,00,*b
$GPGGA,133251.5,5618.9542,N,00547.4919,W,1,00,00.00,0.0,M,0,M,0,*51
$GPRMC,133251,A,5618.9542,N,00547.4919,W,000.0,000.0,130725,00,*9
$GPGGA,133301.5,5618.9674,N,00547.4578,W,1,00,00.00,0.0,M,0,M,0,*58
$GPRMC,133301,A,5618.9674,N,00547.4578,W,000.0,000.0,130725,00,*0
$GPGGA,133311.6,5618.9805,N,00547.4236,W,1,00,00.00,0.0,M,0,M,0,*5f
$GPRMC,133311,A,5618.9805,N,00547.4236,W,000.0,000.0,130725,00,*4
$GPGGA,133321.5,5618.9932,N,00547.3892,W,1,00,00.00,0.0,M,0,M,0,*59
$GPRMC,133321,A,5618.9932,N,00547.3892,W,000.0,000.0,130725,00,*1
$GPGGA,133331.6,5619.0054,N,00547.3570,W,1,00,00.00,0.0,M,0,M,0,*5b
$GPRMC,133331,A,5619.0054,N,00547.3570,W,000.0,000.0,130725,00,*0
$GPGGA,133341.5,5619.0187,N,00547.3220,W,1,00,00.00,0.0,M,0,M,0,*52
$GPRMC,133341,A,5619.0187,N,00547.3220,W,000.0,000.0,130725,00,*a
$GPGGA,133351.5,5619.0314,N,00547.2881,W,1,00,00.00,0.0,M,0,M,0,*5b
$GPRMC,133351,A,5619.0314,N,00547.2881,W,000.0,000.0,130725,00,*3
$GPGGA,133401.5,5619.0439,N,00547.2512,W,1,00,00.00,0.0,M,0,M,0,*56
$GPRMC,133401,A,5619.0439,N,00547.2512,W,000.0,000.0,130725,00,*e
$GPGGA,133411.6,5619.0568,N,00547.2176,W,1,00,00.00,0.0,M,0,M,0,*57
$GPRMC,133411,A,5619.0568,N,00547.2176,W,000.0,000.0,130725,00,*c
$GPGGA,133421.6,5619.0697,N,00547.1826,W,1,00,00.00,0.0,M,0,M,0,*58
$GPRMC,133421,A,5619.0697,N,00547.1826,W,000.0,000.0,130725,00,*3
$GPGGA,133431.6,5619.0817,N,00547.1470,W,1,00,00.00,0.0,M,0,M,0,*50
$GPRMC,133431,A,5619.0817,N,00547.1470,W,000.0,000.0,130725,00,*b
$GPGGA,133441.6,5619.0942,N,00547.1135,W,1,00,00.00,0.0,M,0,M,0,*52
$GPRMC,133441,A,5619.0942,N,00547.1135,W,000.0,000.0,130725,00,*9
$GPGGA,133451.5,5619.1083,N,00547.0778,W,1,00,00.00,0.0,M,0,M,0,*5b
$GPRMC,133451,A,5619.1083,N,00547.0778,W,000.0,000.0,130725,00,*3
$GPGGA,133501.5,5619.1220,N,00547.0421,W,1,00,00.00,0.0,M,0,M,0,*5b
$GPRMC,133501,A,5619.1220,N,00547.0421,W,000.0,000.0,130725,00,*3
$GPGGA,133511.6,5619.1353,N,00547.0106,W,1,00,00.00,0.0,M,0,M,0,*5c
$GPRMC,133511,A,5619.1353,N,00547.0106,W,000.0,000.0,130725,00,*7
$GPGGA,133521.6,5619.1466,N,00546.9776,W,1,00,00.00,0.0,M,0,M,0,*57
$GPRMC,133521,A,5619.1466,N,00546.9776,W,000.0,000.0,130725,00,*c
$GPGGA,133531.6,5619.1592,N,00546.9447,W,1,00,00.00,0.0,M,0,M,0,*5d
$GPRMC,133531,A,5619.1592,N,00546.9447,W,000.0,000.0,130725,00,*6
$GPGGA,133541.6,5619.1722,N,00546.9100,W,1,00,00.00,0.0,M,0,M,0,*55
$GPRMC,133541,A,5619.1722,N,00546.9100,W,000.0,000.0,130725,00,*e
$GPGGA,133551.6,5619.1854,N,00546.8754,W,1,00,00.00,0.0,M,0,M,0,*5c
$GPRMC,133551,A,5619.1854,N,00546.8754,W,000.0,000.0,130725,00,*7
$GPGGA,133601.5,5619.1979,N,00546.8404,W,1,00,00.00,0.0,M,0,M,0,*51
$GPRMC,133601,A,5619.1979,N,00546.8404,W,000.0,000.0,130725,00,*9
$GPGGA,133611.6,5619.2104,N,00546.8057,W,1,00,00.00,0.0,M,0,M,0,*50
$GPRMC,133611,A,5619.2104,N,00546.8057,W,000.0,000.0,130725,00,*b
$GPGGA,133621.5,5619.2231,N,00546.7713,W,1,00,00.00,0.0,M,0,M,0,*5d
$GPRMC,133621,A,5619.2231,N,00546.7713,W,000.0,000.0,130725,00,*5
$GPGGA,133631.6,5619.2368,N,00546.7361,W,1,00,00.00,0.0,M,0,M,0,*53
$GPRMC,133631,A,5619.2368,N,00546.7361,W,000.0,000.0,130725,00,*8
$GPGGA,133641.5,5619.2492,N,00546.7017,W,1,00,00.00,0.0,M,0,M,0,*57
$GPRMC,133641,A,5619.2492,N,00546.7017,W,000.0,000.0,130725,00,*f
$GPGGA,133651.6,5619.2622,N,00546.6678,W,1,00,00.00,0.0,M,0,M,0,*52
$GPRMC,133651,A,5619.2622,N,00546.6678,W,000.0,000.0,130725,00,*9
$GPGGA,133701.5,5619.2744,N,00546.6330,W,1,00,00.00,0.0,M,0,M,0,*5d
$GPRMC,133701,A,5619.2744,N,00546.6330,W,000.0,000.0,130725,00,*5
$GPGGA,133711.5,5619.2870,N,00546.5982,W,1,00,00.00,0.0,M,0,M,0,*54
$GPRMC,133711,A,5619.2870,N,00546.5982,W,000.0,000.0,130725,00,*c
$GPGGA,133721.6,5619.3002,N,00546.5659,W,1,00,00.00,0.0,M,0,M,0,*51
$GPRMC,133721,A,5619.3002,N,00546.5659,W,000.0,000.0,130725,00,*a
$GPGGA,133731.6,5619.3134,N,00546.5310,W,1,00,00.00,0.0,M,0,M,0,*5c
$GPRMC,133731,A,5619.3134,N,00546.5310,W,000.0,000.0,130725,00,*7
$GPGGA,133741.6,5619.3258,N,00546.4974,W,1,00,00.00,0.0,M,0,M,0,*5b
$GPRMC,133741,A,5619.3258,N,00546.4974,W,000.0,000.0,130725,00,*0
$GPGGA,133751.6,5619.3384,N,00546.4648,W,1,00,00.00,0.0,M,0,M,0,*5a
$GPRMC,133751,A,5619.3384,N,00546.4648,W,000.0,000.0,130725,00,*1
$GPGGA,133801.6,5619.3510,N,00546.4290,W,1,00,00.00,0.0,M,0,M,0,*5a
$GPRMC,133801,A,5619.3510,N,00546.4290,W,000.0,000.0,130725,00,*1
$GPGGA,133821.6,5619.3770,N,00546.3619,W,1,00,00.00,0.0,M,0,M,0,*5e
$GPRMC,133821,A,5619.3770,N,00546.3619,W,000.0,000.0,130725,00,*5
$GPGGA,133831.6,5619.3918,N,00546.3282,W,1,00,00.00,0.0,M,0,M,0,*59
$GPRMC,133831,A,5619.3918,N,00546.3282,W,000.0,000.0,130725,00,*2
$GPGGA,133841.5,5619.4041,N,00546.2933,W,1,00,00.00,0.0,M,0,M,0,*5f
$GPRMC,133841,A,5619.4041,N,00546.2933,W,000.0,000.0,130725,00,*7
$GPGGA,133851.6,5619.4171,N,00546.2588,W,1,00,00.00,0.0,M,0,M,0,*53
$GPRMC,133851,A,5619.4171,N,00546.2588,W,000.0,000.0,130725,00,*8
$GPGGA,133901.6,5619.4303,N,00546.2250,W,1,00,00.00,0.0,M,0,M,0,*52
$GPRMC,133901,A,5619.4303,N,00546.2250,W,000.0,000.0,130725,00,*9
$GPGGA,133911.6,5619.4424,N,00546.1911,W,1,00,00.00,0.0,M,0,M,0,*5c
$GPRMC,133911,A,5619.4424,N,00546.1911,W,000.0,000.0,130725,00,*7
$GPGGA,133921.6,5619.4552,N,00546.1569,W,1,00,00.00,0.0,M,0,M,0,*5c
$GPRMC,133921,A,5619.4552,N,00546.1569,W,000.0,000.0,130725,00,*7
$GPGGA,133931.5,5619.4676,N,00546.1240,W,1,00,00.00,0.0,M,0,M,0,*57
$GPRMC,133931,A,5619.4676,N,00546.1240,W,000.0,000.0,130725,00,*f
$GPGGA,133941.6,5619.4817,N,00546.0888,W,1,00,00.00,0.0,M,0,M,0,*55
$GPRMC,133941,A,5619.4817,N,00546.0888,W,000.0,000.0,130725,00,*e
$GPGGA,133951.6,5619.4950,N,00546.0549,W,1,00,00.00,0.0,M,0,M,0,*56
$GPRMC,133951,A,5619.4950,N,00546.0549,W,000.0,000.0,130725,00,*d
$GPGGA,134001.5,5619.5079,N,00546.0224,W,1,00,00.00,0.0,M,0,M,0,*51
$GPRMC,134001,A,5619.5079,N,00546.0224,W,000.0,000.0,130725,00,*9
$GPGGA,134011.6,5619.5214,N,00545.9871,W,1,00,00.00,0.0,M,0,M,0,*5a
$GPRMC,134011,A,5619.5214,N,00545.9871,W,000.0,000.0,130725,00,*1
$GPGGA,134021.5,5619.5346,N,00545.9530,W,1,00,00.00,0.0,M,0,M,0,*54
$GPRMC,134021,A,5619.5346,N,00545.9530,W,000.0,000.0,130725,00,*c
$GPGGA,134031.6,5619.5482,N,00545.9201,W,1,00,00.00,0.0,M,0,M,0,*5c
$GPRMC,134031,A,5619.5482,N,00545.9201,W,000.0,000.0,130725,00,*7
$GPGGA,134041.6,5619.5627,N,00545.8840,W,1,00,00.00,0.0,M,0,M,0,*58
$GPRMC,134041,A,5619.5627,N,00545.8840,W,000.0,000.0,130725,00,*3
$GPGGA,134051.6,5619.5756,N,00545.8482,W,1,00,00.00,0.0,M,0,M,0,*5c
$GPRMC,134051,A,5619.5756,N,00545.8482,W,000.0,000.0,130725,00,*7
$GPGGA,134101.6,5619.5906,N,00545.8146,W,1,00,00.00,0.0,M,0,M,0,*5e
$GPRMC,134101,A,5619.5906,N,00545.8146,W,000.0,000.0,130725,00,*5
$GPGGA,134111.6,5619.6059,N,00545.7848,W,1,00,00.00,0.0,M,0,M,0,*57
$GPRMC,134111,A,5619.6059,N,00545.7848,W,000.0,000.0,130725,00,*c
$GPGGA,134121.6,5619.6188,N,00545.7508,W,1,00,00.00,0.0,M,0,M,0,*50
$GPRMC,134121,A,5619.6188,N,00545.7508,W,000.0,000.0,130725,00,*b
$GPGGA,134131.6,5619.6325,N,00545.7155,W,1,00,00.00,0.0,M,0,M,0,*58
$GPRMC,134131,A,5619.6325,N,00545.7155,W,000.0,000.0,130725,00,*3
$GPGGA,134141.6,5619.6472,N,00545.6828,W,1,00,00.00,0.0,M,0,M,0,*58
$GPRMC,134141,A,5619.6472,N,00545.6828,W,000.0,000.0,130725,00,*3
$GPGGA,134151.6,5619.6592,N,00545.6505,W,1,00,00.00,0.0,M,0,M,0,*54
$GPRMC,134151,A,5619.6592,N,00545.6505,W,000.0,000.0,130725,00,*f
$GPGGA,134201.6,5619.6714,N,00545.6189,W,1,00,00.00,0.0,M,0,M,0,*5e
$GPRMC,134201,A,5619.6714,N,00545.6189,W,000.0,000.0,130725,00,*5
$GPGGA,134211.6,5619.6847,N,00545.5864,W,1,00,00.00,0.0,M,0,M,0,*5f
$GPRMC,134211,A,5619.6847,N,00545.5864,W,000.0,000.0,130725,00,*4
$GPGGA,134221.5,5619.6989,N,00545.5534,W,1,00,00.00,0.0,M,0,M,0,*54
$GPRMC,134221,A,5619.6989,N,00545.5534,W,000.0,000.0,130725,00,*c
$GPGGA,134231.6,5619.7132,N,00545.5202,W,1,00,00.00,0.0,M,0,M,0,*5d
$GPRMC,134231,A,5619.7132,N,00545.5202,W,000.0,000.0,130725,00,*6
$GPGGA,134241.6,5619.7274,N,00545.4875,W,1,00,00.00,0.0,M,0,M,0,*50
$GPRMC,134241,A,5619.7274,N,00545.4875,W,000.0,000.0,130725,00,*b
$GPGGA,134251.6,5619.7402,N,00545.4538,W,1,00,00.00,0.0,M,0,M,0,*52
$GPRMC,134251,A,5619.7402,N,00545.4538,W,000.0,000.0,130725,00,*9
$GPGGA,134311.6,5619.7662,N,00545.3856,W,1,00,00.00,0.0,M,0,M,0,*51
$GPRMC,134311,A,5619.7662,N,00545.3856,W,000.0,000.0,130725,00,*a
$GPGGA,134321.5,5619.7790,N,00545.3538,W,1,00,00.00,0.0,M,0,M,0,*58
$GPRMC,134321,A,5619.7790,N,00545.3538,W,000.0,000.0,130725,00,*0
$GPGGA,134331.6,5619.7923,N,00545.3174,W,1,00,00.00,0.0,M,0,M,0,*50
$GPRMC,134331,A,5619.7923,N,00545.3174,W,000.0,000.0,130725,00,*b
$GPGGA,134341.6,5619.8064,N,00545.2844,W,1,00,00.00,0.0,M,0,M,0,*59
$GPRMC,134341,A,5619.8064,N,00545.2844,W,000.0,000.0,130725,00,*2
$GPGGA,134351.6,5619.8196,N,00545.2492,W,1,00,00.00,0.0,M,0,M,0,*53
$GPRMC,134351,A,5619.8196,N,00545.2492,W,000.0,000.0,130725,00,*8
$GPGGA,134401.5,5619.8333,N,00545.2168,W,1,00,00.00,0.0,M,0,M,0,*5f
$GPRMC,134401,A,5619.8333,N,00545.2168,W,000.0,000.0,130725,00,*7
$GPGGA,134411.6,5619.8456,N,00545.1820,W,1,00,00.00,0.0,M,0,M,0,*5f
$GPRMC,134411,A,5619.8456,N,00545.1820,W,000.0,000.0,130725,00,*4
$GPGGA,134421.6,5619.8591,N,00545.1488,W,1,00,00.00,0.0,M,0,M,0,*58
$GPRMC,134421,A,5619.8591,N,00545.1488,W,000.0,000.0,130725,00,*3
$GPGGA,134431.6,5619.8719,N,00545.1177,W,1,00,00.00,0.0,M,0,M,0,*5e
$GPRMC,134431,A,5619.8719,N,00545.1177,W,000.0,000.0,130725,00,*5
$GPGGA,134441.6,5619.8841,N,00545.0838,W,1,00,00.00,0.0,M,0,M,0,*58
$GPRMC,134441,A,5619.8841,N,00545.0838,W,000.0,000.0,130725,00,*3
$GPGGA,134451.6,5619.8986,N,00545.0500,W,1,00,00.00,0.0,M,0,M,0,*55
$GPRMC,134451,A,5619.8986,N,00545.0500,W,000.0,000.0,130725,00,*e
$GPGGA,134501.6,5619.9123,N,00545.0206,W,1,00,00.00,0.0,M,0,M,0,*56
$GPRMC,134501,A,5619.9123,N,00545.0206,W,000.0,000.0,130725,00,*d
$GPGGA,134511.6,5619.9256,N,00544.9900,W,1,00,00.00,0.0,M,0,M,0,*53
$GPRMC,134511,A,5619.9256,N,00544.9900,W,000.0,000.0,130725,00,*8
$GPGGA,134521.6,5619.9384,N,00544.9591,W,1,00,00.00,0.0,M,0,M,0,*5a
$GPRMC,134521,A,5619.9384,N,00544.9591,W,000.0,000.0,130725,00,*1
$GPGGA,134531.6,5619.9524,N,00544.9293,W,1,00,00.00,0.0,M,0,M,0,*52
$GPRMC,134531,A,5619.9524,N,00544.9293,W,000.0,000.0,130725,00,*9
$GPGGA,134541.6,5619.9656,N,00544.8981,W,1,00,00.00,0.0,M,0,M,0,*5a
$GPRMC,134541,A,5619.9656,N,00544.8981,W,000.0,000.0,130725,00,*1
$GPGGA,134601.5,5619.9926,N,00544.8378,W,1,00,00.00,0.0,M,0,M,0,*5a
$GPRMC,134601,A,5619.9926,N,00544.8378,W,000.0,000.0,130725,00,*2
$GPGGA,134611.7,5620.0054,N,00544.8071,W,1,00,00.00,0.0,M,0,M,0,*5c
$GPRMC,134611,A,5620.0054,N,00544.8071,W,000.0,000.0,130725,00,*6
$GPGGA,134621.5,5620.0206,N,00544.7752,W,1,00,00.00,0.0,M,0,M,0,*51
$GPRMC,134621,A,5620.0206,N,00544.7752,W,000.0,000.0,130725,00,*9
$GPGGA,134631.5,5620.0347,N,00544.7439,W,1,00,00.00,0.0,M,0,M,0,*5a
$GPRMC,134631,A,5620.0347,N,00544.7439,W,000.0,000.0,130725,00,*2
$GPGGA,134641.5,5620.0483,N,00544.7130,W,1,00,00.00,0.0,M,0,M,0,*5e
$GPRMC,134641,A,5620.0483,N,00544.7130,W,000.0,000.0,130725,00,*6
$GPGGA,134651.5,5620.0603,N,00544.6836,W,1,00,00.00,0.0,M,0,M,0,*5b
$GPRMC,134651,A,5620.0603,N,00544.6836,W,000.0,000.0,130725,00,*3
$GPGGA,134701.5,5620.0736,N,00544.6528,W,1,00,00.00,0.0,M,0,M,0,*5a
$GPRMC,134701,A,5620.0736,N,00544.6528,W,000.0,000.0,130725,00,*2
$GPGGA,134711.6,5620.0858,N,00544.6223,W,1,00,00.00,0.0,M,0,M,0,*53
$GPRMC,134711,A,5620.0858,N,00544.6223,W,000.0,000.0,130725,00,*8
$GPGGA,134721.5,5620.0986,N,00544.5915,W,1,00,00.00,0.0,M,0,M,0,*5c
$GPRMC,134721,A,5620.0986,N,00544.5915,W,000.0,000.0,130725,00,*4
$GPGGA,134731.5,5620.1118,N,00544.5623,W,1,00,00.00,0.0,M,0,M,0,*59
$GPRMC,134731,A,5620.1118,N,00544.5623,W,000.0,000.0,130725,00,*1
$GPGGA,134751.6,5620.1355,N,00544.5053,W,1,00,00.00,0.0,M,0,M,0,*56
$GPRMC,134751,A,5620.1355,N,00544.5053,W,000.0,000.0,130725,00,*d
$GPGGA,134801.5,5620.1504,N,00544.4712,W,1,00,00.00,0.0,M,0,M,0,*5e
$GPRMC,134801,A,5620.1504,N,00544.4712,W,000.0,000.0,130725,00,*6
$GPGGA,134811.7,5620.1646,N,00544.4395,W,1,00,00.00,0.0,M,0,M,0,*53
$GPRMC,134811,A,5620.1646,N,00544.4395,W,000.0,000.0,130725,00,*9
$GPGGA,134821.6,5620.1785,N,00544.4085,W,1,00,00.00,0.0,M,0,M,0,*5d
$GPRMC,134821,A,5620.1785,N,00544.4085,W,000.0,000.0,130725,00,*6
$GPGGA,134831.5,5620.1903,N,00544.3798,W,1,00,00.00,0.0,M,0,M,0,*53
$GPRMC,134831,A,5620.1903,N,00544.3798,W,000.0,000.0,130725,00,*b
$GPGGA,134848.2,5620.2114,N,00544.3337,W,1,00,00.00,0.0,M,0,M,0,*56
$GPRMC,134848,A,5620.2114,N,00544.3337,W,000.0,000.0,130725,00,*9
$GPGGA,134853.3,5620.2238,N,00544.3095,W,1,00,00.00,0.0,M,0,M,0,*5b
$GPRMC,134853,A,5620.2238,N,00544.3095,W,000.0,000.0,130725,00,*5
$GPGGA,134858.3,5620.2313,N,00544.2958,W,1,00,00.00,0.0,M,0,M,0,*51
$GPRMC,134858,A,5620.2313,N,00544.2958,W,000.0,000.0,130725,00,*f
$GPGGA,134912.6,5620.2497,N,00544.2638,W,1,00,00.00,0.0,M,0,M,0,*59
$GPRMC,134912,A,5620.2497,N,00544.2638,W,000.0,000.0,130725,00,*2
$GPGGA,134922.6,5620.2629,N,00544.2358,W,1,00,00.00,0.0,M,0,M,0,*5e
$GPRMC,134922,A,5620.2629,N,00544.2358,W,000.0,000.0,130725,00,*5
$GPGGA,140233.5,5621.5413,N,00542.0080,W,1,00,00.00,0.0,M,0,M,0,*5a
$GPRMC,140233,A,5621.5413,N,00542.0080,W,000.0,000.0,130725,00,*2
$GPGGA,140238.6,5621.5525,N,00541.9901,W,1,00,00.00,0.0,M,0,M,0,*5c
$GPRMC,140238,A,5621.5525,N,00541.9901,W,000.0,000.0,130725,00,*7
$GPGGA,140243.3,5621.5610,N,00541.9729,W,1,00,00.00,0.0,M,0,M,0,*54
$GPRMC,140243,A,5621.5610,N,00541.9729,W,000.0,000.0,130725,00,*a
$GPGGA,140253.3,5621.5726,N,00541.9504,W,1,00,00.00,0.0,M,0,M,0,*5c
$GPRMC,140253,A,5621.5726,N,00541.9504,W,000.0,000.0,130725,00,*2
$GPGGA,140258.3,5621.5814,N,00541.9366,W,1,00,00.00,0.0,M,0,M,0,*5b
$GPRMC,140258,A,5621.5814,N,00541.9366,W,000.0,000.0,130725,00,*5
$GPGGA,140303.3,5621.5907,N,00541.9202,W,1,00,00.00,0.0,M,0,M,0,*54
$GPRMC,140303,A,5621.5907,N,00541.9202,W,000.0,000.0,130725,00,*a
$GPGGA,140308.4,5621.5948,N,00541.9124,W,1,00,00.00,0.0,M,0,M,0,*54
$GPRMC,140308,A,5621.5948,N,00541.9124,W,000.0,000.0,130725,00,*d
$GPGGA,140313.3,5621.6071,N,00541.8902,W,1,00,00.00,0.0,M,0,M,0,*54
$GPRMC,140313,A,5621.6071,N,00541.8902,W,000.0,000.0,130725,00,*a
$GPGGA,140323.2,5621.6292,N,00541.8540,W,1,00,00.00,0.0,M,0,M,0,*53
$GPRMC,140323,A,5621.6292,N,00541.8540,W,000.0,000.0,130725,00,*c
$GPGGA,140328.2,5621.6377,N,00541.8413,W,1,00,00.00,0.0,M,0,M,0,*55
$GPRMC,140328,A,5621.6377,N,00541.8413,W,000.0,000.0,130725,00,*a
$GPGGA,140333.3,5621.6475,N,00541.8257,W,1,00,00.00,0.0,M,0,M,0,*5d
$GPRMC,140333,A,5621.6475,N,00541.8257,W,000.0,000.0,130725,00,*3
$GPGGA,140338.2,5621.6566,N,00541.8111,W,1,00,00.00,0.0,M,0,M,0,*55
$GPRMC,140338,A,5621.6566,N,00541.8111,W,000.0,000.0,130725,00,*a
$GPGGA,140343.3,5621.6654,N,00541.7978,W,1,00,00.00,0.0,M,0,M,0,*52
$GPRMC,140343,A,5621.6654,N,00541.7978,W,000.0,000.0,130725,00,*c
$GPGGA,140348.3,5621.6749,N,00541.7826,W,1,00,00.00,0.0,M,0,M,0,*5e
$GPRMC,140348,A,5621.6749,N,00541.7826,W,000.0,000.0,130725,00,*0
$GPGGA,140353.3,5621.6836,N,00541.7682,W,1,00,00.00,0.0,M,0,M,0,*53
$GPRMC,140353,A,5621.6836,N,00541.7682,W,000.0,000.0,130725,00,*d
$GPGGA,140358.3,5621.6930,N,00541.7545,W,1,00,00.00,0.0,M,0,M,0,*57
$GPRMC,140358,A,5621.6930,N,00541.7545,W,000.0,000.0,130725,00,*9
$GPGGA,140403.3,5621.7019,N,00541.7409,W,1,00,00.00,0.0,M,0,M,0,*54
$GPRMC,140403,A,5621.7019,N,00541.7409,W,000.0,000.0,130725,00,*a
$GPGGA,140408.3,5621.7111,N,00541.7262,W,1,00,00.00,0.0,M,0,M,0,*5d
$GPRMC,140408,A,5621.7111,N,00541.7262,W,000.0,000.0,130725,00,*3
$GPGGA,140413.3,5621.7197,N,00541.7128,W,1,00,00.00,0.0,M,0,M,0,*54
$GPRMC,140413,A,5621.7197,N,00541.7128,W,000.0,000.0,130725,00,*a
$GPGGA,140418.2,5621.7293,N,00541.6977,W,1,00,00.00,0.0,M,0,M,0,*5a
$GPRMC,140418,A,5621.7293,N,00541.6977,W,000.0,000.0,130725,00,*5
$GPGGA,140423.3,5621.7391,N,00541.6840,W,1,00,00.00,0.0,M,0,M,0,*55
$GPRMC,140423,A,5621.7391,N,00541.6840,W,000.0,000.0,130725,00,*b
$GPGGA,140428.3,5621.7481,N,00541.6690,W,1,00,00.00,0.0,M,0,M,0,*5b
$GPRMC,140428,A,5621.7481,N,00541.6690,W,000.0,000.0,130725,00,*5
$GPGGA,140433.2,5621.7574,N,00541.6547,W,1,00,00.00,0.0,M,0,M,0,*52
$GPRMC,140433,A,5621.7574,N,00541.6547,W,000.0,000.0,130725,00,*d
$GPGGA,140438.3,5621.7664,N,00541.6407,W,1,00,00.00,0.0,M,0,M,0,*5f
$GPRMC,140438,A,5621.7664,N,00541.6407,W,000.0,000.0,130725,00,*1
$GPGGA,140443.3,5621.7757,N,00541.6255,W,1,00,00.00,0.0,M,0,M,0,*53
$GPRMC,140443,A,5621.7757,N,00541.6255,W,000.0,000.0,130725,00,*d
$GPGGA,140448.2,5621.7839,N,00541.6133,W,1,00,00.00,0.0,M,0,M,0,*5d
$GPRMC,140448,A,5621.7839,N,00541.6133,W,000.0,000.0,130725,00,*2
$GPGGA,140453.3,5621.7898,N,00541.6065,W,1,00,00.00,0.0,M,0,M,0,*5f
$GPRMC,140453,A,5621.7898,N,00541.6065,W,000.0,000.0,130725,00,*1
$GPGGA,140457.9,5621.8010,N,00541.6013,W,1,00,00.00,0.0,M,0,M,0,*57
$GPRMC,140457,A,5621.8010,N,00541.6013,W,000.0,000.0,130725,00,*3
$GPGGA,140503.2,5621.8122,N,00541.5752,W,1,00,00.00,0.0,M,0,M,0,*5d
$GPRMC,140503,A,5621.8122,N,00541.5752,W,000.0,000.0,130725,00,*2
$GPGGA,140508.3,5621.8221,N,00541.5542,W,1,00,00.00,0.0,M,0,M,0,*54
$GPRMC,140508,A,5621.8221,N,00541.5542,W,000.0,000.0,130725,00,*a
$GPGGA,140513.2,5621.8317,N,00541.5422,W,1,00,00.00,0.0,M,0,M,0,*5c
$GPRMC,140513,A,5621.8317,N,00541.5422,W,000.0,000.0,130725,00,*3
$GPGGA,140518.2,5621.8409,N,00541.5271,W,1,00,00.00,0.0,M,0,M,0,*5f
$GPRMC,140518,A,5621.8409,N,00541.5271,W,000.0,000.0,130725,00,*0
$GPGGA,140523.2,5621.8501,N,00541.5134,W,1,00,00.00,0.0,M,0,M,0,*5c
$GPRMC,140523,A,5621.8501,N,00541.5134,W,000.0,000.0,130725,00,*3
$GPGGA,140528.2,5621.8597,N,00541.4995,W,1,00,00.00,0.0,M,0,M,0,*5a
$GPRMC,140528,A,5621.8597,N,00541.4995,W,000.0,000.0,130725,00,*5
$GPGGA,140533.2,5621.8686,N,00541.4844,W,1,00,00.00,0.0,M,0,M,0,*5e
$GPRMC,140533,A,5621.8686,N,00541.4844,W,000.0,000.0,130725,00,*1
$GPGGA,140538.2,5621.8780,N,00541.4713,W,1,00,00.00,0.0,M,0,M,0,*5f
$GPRMC,140538,A,5621.8780,N,00541.4713,W,000.0,000.0,130725,00,*0
$GPGGA,140543.3,5621.8842,N,00541.4546,W,1,00,00.00,0.0,M,0,M,0,*51
$GPRMC,140543,A,5621.8842,N,00541.4546,W,000.0,000.0,130725,00,*f
$GPGGA,140548.3,5621.8922,N,00541.4403,W,1,00,00.00,0.0,M,0,M,0,*5d
$GPRMC,140548,A,5621.8922,N,00541.4403,W,000.0,000.0,130725,00,*3
$GPGGA,140553.3,5621.9013,N,00541.4226,W,1,00,00.00,0.0,M,0,M,0,*5c
$GPRMC,140553,A,5621.9013,N,00541.4226,W,000.0,000.0,130725,00,*2
$GPGGA,140558.3,5621.9134,N,00541.4095,W,1,00,00.00,0.0,M,0,M,0,*59
$GPRMC,140558,A,5621.9134,N,00541.4095,W,000.0,000.0,130725,00,*7
$GPGGA,140603.3,5621.9253,N,00541.4016,W,1,00,00.00,0.0,M,0,M,0,*5d
$GPRMC,140603,A,5621.9253,N,00541.4016,W,000.0,000.0,130725,00,*3
$GPGGA,140608.3,5621.9327,N,00541.3873,W,1,00,00.00,0.0,M,0,M,0,*58
$GPRMC,140608,A,5621.9327,N,00541.3873,W,000.0,000.0,130725,00,*6
$GPGGA,140613.3,5621.9418,N,00541.3732,W,1,00,00.00,0.0,M,0,M,0,*53
$GPRMC,140613,A,5621.9418,N,00541.3732,W,000.0,000.0,130725,00,*d
$GPGGA,140618.2,5621.9510,N,00541.3599,W,1,00,00.00,0.0,M,0,M,0,*53
$GPRMC,140618,A,5621.9510,N,00541.3599,W,000.0,000.0,130725,00,*c
$GPGGA,140623.3,5621.9604,N,00541.3475,W,1,00,00.00,0.0,M,0,M,0,*5f
$GPRMC,140623,A,5621.9604,N,00541.3475,W,000.0,000.0,130725,00,*1
$GPGGA,140628.3,5621.9710,N,00541.3365,W,1,00,00.00,0.0,M,0,M,0,*56
$GPRMC,140628,A,5621.9710,N,00541.3365,W,000.0,000.0,130725,00,*8
$GPGGA,140633.3,5621.9808,N,00541.3251,W,1,00,00.00,0.0,M,0,M,0,*5c
$GPRMC,140633,A,5621.9808,N,00541.3251,W,000.0,000.0,130725,00,*2
$GPGGA,140638.3,5621.9885,N,00541.3174,W,1,00,00.00,0.0,M,0,M,0,*56
$GPRMC,140638,A,5621.9885,N,00541.3174,W,000.0,000.0,130725,00,*8
$GPGGA,140642.9,5621.9987,N,00541.3194,W,1,00,00.00,0.0,M,0,M,0,*5c
$GPRMC,140642,A,5621.9987,N,00541.3194,W,000.0,000.0,130725,00,*8
$GPGGA,140647.5,5622.0074,N,00541.2981,W,1,00,00.00,0.0,M,0,M,0,*57
$GPRMC,140647,A,5622.0074,N,00541.2981,W,000.0,000.0,130725,00,*f
$GPGGA,140652.2,5622.0190,N,00541.2877,W,1,00,00.00,0.0,M,0,M,0,*57
$GPRMC,140652,A,5622.0190,N,00541.2877,W,000.0,000.0,130725,00,*8
$GPGGA,140657.0,5622.0275,N,00541.2794,W,1,00,00.00,0.0,M,0,M,0,*5a
$GPRMC,140657,A,5622.0275,N,00541.2794,W,000.0,000.0,130725,00,*7
$GPGGA,140702.3,5622.0357,N,00541.2740,W,1,00,00.00,0.0,M,0,M,0,*50
$GPRMC,140702,A,5622.0357,N,00541.2740,W,000.0,000.0,130725,00,*e
$GPGGA,140712.3,5622.0552,N,00541.2500,W,1,00,00.00,0.0,M,0,M,0,*54
$GPRMC,140712,A,5622.0552,N,00541.2500,W,000.0,000.0,130725,00,*a
$GPGGA,140717.3,5622.0674,N,00541.2369,W,1,00,00.00,0.0,M,0,M,0,*5f
$GPRMC,140717,A,5622.0674,N,00541.2369,W,000.0,000.0,130725,00,*1
$GPGGA,140722.1,5622.0761,N,00541.2222,W,1,00,00.00,0.0,M,0,M,0,*50
$GPRMC,140722,A,5622.0761,N,00541.2222,W,000.0,000.0,130725,00,*c
$GPGGA,140727.6,5622.0879,N,00541.2154,W,1,00,00.00,0.0,M,0,M,0,*56
$GPRMC,140727,A,5622.0879,N,00541.2154,W,000.0,000.0,130725,00,*d
$GPGGA,140732.3,5622.0950,N,00541.2006,W,1,00,00.00,0.0,M,0,M,0,*5b
$GPRMC,140732,A,5622.0950,N,00541.2006,W,000.0,000.0,130725,00,*5
$GPGGA,140737.1,5622.1030,N,00541.1849,W,1,00,00.00,0.0,M,0,M,0,*52
$GPRMC,140737,A,5622.1030,N,00541.1849,W,000.0,000.0,130725,00,*e
$GPGGA,140744.5,5622.1087,N,00541.1721,W,1,00,00.00,0.0,M,0,M,0,*5f
$GPRMC,140744,A,5622.1087,N,00541.1721,W,000.0,000.0,130725,00,*7
$GPGGA,140809.6,5622.1152,N,00541.1822,W,1,00,00.00,0.0,M,0,M,0,*5f
$GPRMC,140809,A,5622.1152,N,00541.1822,W,000.0,000.0,130725,00,*4
$GPGGA,141117.3,5622.5640,N,00540.8117,W,1,00,00.00,0.0,M,0,M,0,*5a
$GPRMC,141117,A,5622.5640,N,00540.8117,W,000.0,000.0,130725,00,*4
$GPGGA,141122.3,5622.5751,N,00540.8155,W,1,00,00.00,0.0,M,0,M,0,*5b
$GPRMC,141122,A,5622.5751,N,00540.8155,W,000.0,000.0,130725,00,*5
$GPGGA,141132.3,5622.5929,N,00540.8090,W,1,00,00.00,0.0,M,0,M,0,*53
$GPRMC,141132,A,5622.5929,N,00540.8090,W,000.0,000.0,130725,00,*d
$GPGGA,141137.3,5622.6044,N,00540.8088,W,1,00,00.00,0.0,M,0,M,0,*5e
$GPRMC,141137,A,5622.6044,N,00540.8088,W,000.0,000.0,130725,00,*0
$GPGGA,141142.4,5622.6134,N,00540.8069,W,1,00,00.00,0.0,M,0,M,0,*52
$GPRMC,141142,A,5622.6134,N,00540.8069,W,000.0,000.0,130725,00,*b
$GPGGA,141147.3,5622.6198,N,00540.8060,W,1,00,00.00,0.0,M,0,M,0,*5f
$GPRMC,141147,A,5622.6198,N,00540.8060,W,000.0,000.0,130725,00,*1
$GPGGA,141152.4,5622.6281,N,00540.8033,W,1,00,00.00,0.0,M,0,M,0,*51
$GPRMC,141152,A,5622.6281,N,00540.8033,W,000.0,000.0,130725,00,*8
$GPGGA,141157.3,5622.6366,N,00540.7969,W,1,00,00.00,0.0,M,0,M,0,*52
$GPRMC,141157,A,5622.6366,N,00540.7969,W,000.0,000.0,130725,00,*c
$GPGGA,141202.4,5622.6443,N,00540.7924,W,1,00,00.00,0.0,M,0,M,0,*5f
$GPRMC,141202,A,5622.6443,N,00540.7924,W,000.0,000.0,130725,00,*6
$GPGGA,141207.4,5622.6523,N,00540.7873,W,1,00,00.00,0.0,M,0,M,0,*5e
$GPRMC,141207,A,5622.6523,N,00540.7873,W,000.0,000.0,130725,00,*7
$GPGGA,141212.3,5622.6604,N,00540.7830,W,1,00,00.00,0.0,M,0,M,0,*5c
$GPRMC,141212,A,5622.6604,N,00540.7830,W,000.0,000.0,130725,00,*2
$GPGGA,141217.3,5622.6686,N,00540.7791,W,1,00,00.00,0.0,M,0,M,0,*57
$GPRMC,141217,A,5622.6686,N,00540.7791,W,000.0,000.0,130725,00,*9
$GPGGA,141222.3,5622.6763,N,00540.7748,W,1,00,00.00,0.0,M,0,M,0,*5f
$GPRMC,141222,A,5622.6763,N,00540.7748,W,000.0,000.0,130725,00,*1
$GPGGA,141227.3,5622.6838,N,00540.7705,W,1,00,00.00,0.0,M,0,M,0,*52
$GPRMC,141227,A,5622.6838,N,00540.7705,W,000.0,000.0,130725,00,*c
$GPGGA,141232.3,5622.6914,N,00540.7665,W,1,00,00.00,0.0,M,0,M,0,*5e
$GPRMC,141232,A,5622.6914,N,00540.7665,W,000.0,000.0,130725,00,*0
$GPGGA,141237.3,5622.6982,N,00540.7620,W,1,00,00.00,0.0,M,0,M,0,*55
$GPRMC,141237,A,5622.6982,N,00540.7620,W,000.0,000.0,130725,00,*b
$GPGGA,141242.3,5622.7058,N,00540.7593,W,1,00,00.00,0.0,M,0,M,0,*53
$GPRMC,141242,A,5622.7058,N,00540.7593,W,000.0,000.0,130725,00,*d
$GPGGA,141247.3,5622.7132,N,00540.7552,W,1,00,00.00,0.0,M,0,M,0,*56
$GPRMC,141247,A,5622.7132,N,00540.7552,W,000.0,000.0,130725,00,*8
$GPGGA,141252.4,5622.7203,N,00540.7497,W,1,00,00.00,0.0,M,0,M,0,*5c
$GPRMC,141252,A,5622.7203,N,00540.7497,W,000.0,000.0,130725,00,*5
$GPGGA,141257.3,5622.7270,N,00540.7441,W,1,00,00.00,0.0,M,0,M,0,*51
$GPRMC,141257,A,5622.7270,N,00540.7441,W,000.0,000.0,130725,00,*f
$GPGGA,141302.3,5622.7341,N,00540.7379,W,1,00,00.00,0.0,M,0,M,0,*5f
$GPRMC,141302,A,5622.7341,N,00540.7379,W,000.0,000.0,130725,00,*1
$GPGGA,141307.3,5622.7415,N,00540.7317,W,1,00,00.00,0.0,M,0,M,0,*54
$GPRMC,141307,A,5622.7415,N,00540.7317,W,000.0,000.0,130725,00,*a
$GPGGA,141312.3,5622.7484,N,00540.7260,W,1,00,00.00,0.0,M,0,M,0,*59
$GPRMC,141312,A,5622.7484,N,00540.7260,W,000.0,000.0,130725,00,*7
$GPGGA,141317.3,5622.7556,N,00540.7198,W,1,00,00.00,0.0,M,0,M,0,*56
$GPRMC,141317,A,5622.7556,N,00540.7198,W,000.0,000.0,130725,00,*8
$GPGGA,141322.3,5622.7632,N,00540.7129,W,1,00,00.00,0.0,M,0,M,0,*5b
$GPRMC,141322,A,5622.7632,N,00540.7129,W,000.0,000.0,130725,00,*5
$GPGGA,141327.3,5622.7699,N,00540.7069,W,1,00,00.00,0.0,M,0,M,0,*5a
$GPRMC,141327,A,5622.7699,N,00540.7069,W,000.0,000.0,130725,00,*4
$GPGGA,141332.3,5622.7767,N,00540.7010,W,1,00,00.00,0.0,M,0,M,0,*50
$GPRMC,141332,A,5622.7767,N,00540.7010,W,000.0,000.0,130725,00,*e
$GPGGA,141337.3,5622.7836,N,00540.6948,W,1,00,00.00,0.0,M,0,M,0,*5b
$GPRMC,141337,A,5622.7836,N,00540.6948,W,000.0,000.0,130725,00,*5
$GPGGA,141342.3,5622.7905,N,00540.6888,W,1,00,00.00,0.0,M,0,M,0,*55
$GPRMC,141342,A,5622.7905,N,00540.6888,W,000.0,000.0,130725,00,*b
$GPGGA,141347.3,5622.7973,N,00540.6823,W,1,00,00.00,0.0,M,0,M,0,*50
$GPRMC,141347,A,5622.7973,N,00540.6823,W,000.0,000.0,130725,00,*e
$GPGGA,141352.3,5622.8040,N,00540.6759,W,1,00,00.00,0.0,M,0,M,0,*50
$GPRMC,141352,A,5622.8040,N,00540.6759,W,000.0,000.0,130725,00,*e
$GPGGA,141357.3,5622.8105,N,00540.6691,W,1,00,00.00,0.0,M,0,M,0,*50
$GPRMC,141357,A,5622.8105,N,00540.6691,W,000.0,000.0,130725,00,*e
$GPGGA,141402.3,5622.8170,N,00540.6620,W,1,00,00.00,0.0,M,0,M,0,*5f
$GPRMC,141402,A,5622.8170,N,00540.6620,W,000.0,000.0,130725,00,*1
$GPGGA,141407.4,5622.8234,N,00540.6555,W,1,00,00.00,0.0,M,0,M,0,*5f
$GPRMC,141407,A,5622.8234,N,00540.6555,W,000.0,000.0,130725,00,*6
$GPGGA,141412.3,5622.8297,N,00540.6490,W,1,00,00.00,0.0,M,0,M,0,*5d
$GPRMC,141412,A,5622.8297,N,00540.6490,W,000.0,000.0,130725,00,*3
$GPGGA,141417.3,5622.8359,N,00540.6419,W,1,00,00.00,0.0,M,0,M,0,*5a
$GPRMC,141417,A,5622.8359,N,00540.6419,W,000.0,000.0,130725,00,*4
$GPGGA,141422.3,5622.8421,N,00540.6353,W,1,00,00.00,0.0,M,0,M,0,*5d
$GPRMC,141422,A,5622.8421,N,00540.6353,W,000.0,000.0,130725,00,*3
$GPGGA,141427.3,5622.8486,N,00540.6288,W,1,00,00.00,0.0,M,0,M,0,*52
$GPRMC,141427,A,5622.8486,N,00540.6288,W,000.0,000.0,130725,00,*c
$GPGGA,141432.3,5622.8550,N,00540.6222,W,1,00,00.00,0.0,M,0,M,0,*5c
$GPRMC,141432,A,5622.8550,N,00540.6222,W,000.0,000.0,130725,00,*2
$GPGGA,141437.3,5622.8616,N,00540.6158,W,1,00,00.00,0.0,M,0,M,0,*56
$GPRMC,141437,A,5622.8616,N,00540.6158,W,000.0,000.0,130725,00,*8
$GPGGA,141442.3,5622.8678,N,00540.6092,W,1,00,00.00,0.0,M,0,M,0,*5b
$GPRMC,141442,A,5622.8678,N,00540.6092,W,000.0,000.0,130725,00,*5
$GPGGA,141447.3,5622.8740,N,00540.6026,W,1,00,00.00,0.0,M,0,M,0,*5b
$GPRMC,141447,A,5622.8740,N,00540.6026,W,000.0,000.0,130725,00,*5
$GPGGA,141452.3,5622.8803,N,00540.5957,W,1,00,00.00,0.0,M,0,M,0,*5b
$GPRMC,141452,A,5622.8803,N,00540.5957,W,000.0,000.0,130725,00,*5
$GPGGA,141457.3,5622.8865,N,00540.5890,W,1,00,00.00,0.0,M,0,M,0,*54
$GPRMC,141457,A,5622.8865,N,00540.5890,W,000.0,000.0,130725,00,*a
$GPGGA,141502.3,5622.8924,N,00540.5820,W,1,00,00.00,0.0,M,0,M,0,*5a
$GPRMC,141502,A,5622.8924,N,00540.5820,W,000.0,000.0,130725,00,*4
$GPGGA,141507.4,5622.8986,N,00540.5755,W,1,00,00.00,0.0,M,0,M,0,*5d
$GPRMC,141507,A,5622.8986,N,00540.5755,W,000.0,000.0,130725,00,*4
$GPGGA,141512.3,5622.9050,N,00540.5695,W,1,00,00.00,0.0,M,0,M,0,*50
$GPRMC,141512,A,5622.9050,N,00540.5695,W,000.0,000.0,130725,00,*e
$GPGGA,141517.4,5622.9106,N,00540.5626,W,1,00,00.00,0.0,M,0,M,0,*58
$GPRMC,141517,A,5622.9106,N,00540.5626,W,000.0,000.0,130725,00,*1
$GPGGA,141522.3,5622.9166,N,00540.5556,W,1,00,00.00,0.0,M,0,M,0,*5b
$GPRMC,141522,A,5622.9166,N,00540.5556,W,000.0,000.0,130725,00,*5
$GPGGA,141527.4,5622.9227,N,00540.5486,W,1,00,00.00,0.0,M,0,M,0,*53
$GPRMC,141527,A,5622.9227,N,00540.5486,W,000.0,000.0,130725,00,*a
$GPGGA,141532.3,5622.9289,N,00540.5416,W,1,00,00.00,0.0,M,0,M,0,*5d
$GPRMC,141532,A,5622.9289,N,00540.5416,W,000.0,000.0,130725,00,*3
$GPGGA,141537.4,5622.9349,N,00540.5346,W,1,00,00.00,0.0,M,0,M,0,*50
$GPRMC,141537,A,5622.9349,N,00540.5346,W,000.0,000.0,130725,00,*9
$GPGGA,141542.3,5622.9412,N,00540.5274,W,1,00,00.00,0.0,M,0,M,0,*5c
$GPRMC,141542,A,5622.9412,N,00540.5274,W,000.0,000.0,130725,00,*2
$GPGGA,141547.4,5622.9476,N,00540.5203,W,1,00,00.00,0.0,M,0,M,0,*5c
$GPRMC,141547,A,5622.9476,N,00540.5203,W,000.0,000.0,130725,00,*5
$GPGGA,141552.3,5622.9535,N,00540.5136,W,1,00,00.00,0.0,M,0,M,0,*5c
$GPRMC,141552,A,5622.9535,N,00540.5136,W,000.0,000.0,130725,00,*2
$GPGGA,141557.3,5622.9602,N,00540.5059,W,1,00,00.00,0.0,M,0,M,0,*56
$GPRMC,141557,A,5622.9602,N,00540.5059,W,000.0,000.0,130725,00,*8
$GPGGA,141602.3,5622.9661,N,00540.4984,W,1,00,00.00,0.0,M,0,M,0,*58
$GPRMC,141602,A,5622.9661,N,00540.4984,W,000.0,000.0,130725,00,*6
$GPGGA,141607.4,5622.9727,N,00540.4914,W,1,00,00.00,0.0,M,0,M,0,*50
$GPRMC,141607,A,5622.9727,N,00540.4914,W,000.0,000.0,130725,00,*9
$GPGGA,141612.4,5622.9793,N,00540.4844,W,1,00,00.00,0.0,M,0,M,0,*5f
$GPRMC,141612,A,5622.9793,N,00540.4844,W,000.0,000.0,130725,00,*6
$GPGGA,141617.3,5622.9858,N,00540.4776,W,1,00,00.00,0.0,M,0,M,0,*5b
$GPRMC,141617,A,5622.9858,N,00540.4776,W,000.0,000.0,130725,00,*5
$GPGGA,141622.4,5622.9920,N,00540.4710,W,1,00,00.00,0.0,M,0,M,0,*54
$GPRMC,141622,A,5622.9920,N,00540.4710,W,000.0,000.0,130725,00,*d
$GPGGA,141627.3,5622.9979,N,00540.4642,W,1,00,00.00,0.0,M,0,M,0,*5c
$GPRMC,141627,A,5622.9979,N,00540.4642,W,000.0,000.0,130725,00,*2
$GPGGA,141632.4,5623.0041,N,00540.4571,W,1,00,00.00,0.0,M,0,M,0,*56
$GPRMC,141632,A,5623.0041,N,00540.4571,W,000.0,000.0,130725,00,*f
$GPGGA,141637.4,5623.0106,N,00540.4498,W,1,00,00.00,0.0,M,0,M,0,*57
$GPRMC,141637,A,5623.0106,N,00540.4498,W,000.0,000.0,130725,00,*e
$GPGGA,141642.3,5623.0165,N,00540.4428,W,1,00,00.00,0.0,M,0,M,0,*5c
$GPRMC,141642,A,5623.0165,N,00540.4428,W,000.0,000.0,130725,00,*2
$GPGGA,141647.4,5623.0221,N,00540.4363,W,1,00,00.00,0.0,M,0,M,0,*55
$GPRMC,141647,A,5623.0221,N,00540.4363,W,000.0,000.0,130725,00,*c
$GPGGA,141652.3,5623.0275,N,00540.4309,W,1,00,00.00,0.0,M,0,M,0,*5b
$GPRMC,141652,A,5623.0275,N,00540.4309,W,000.0,000.0,130725,00,*5
$GPGGA,141657.4,5623.0325,N,00540.4260,W,1,00,00.00,0.0,M,0,M,0,*53
$GPRMC,141657,A,5623.0325,N,00540.4260,W,000.0,000.0,130725,00,*a
$GPGGA,141702.3,5623.0375,N,00540.4215,W,1,00,00.00,0.0,M,0,M,0,*52
$GPRMC,141702,A,5623.0375,N,00540.4215,W,000.0,000.0,130725,00,*c
$GPGGA,141712.4,5623.0478,N,00540.4121,W,1,00,00.00,0.0,M,0,M,0,*5a
$GPRMC,141712,A,5623.0478,N,00540.4121,W,000.0,000.0,130725,00,*3
$GPGGA,141736.3,5623.0566,N,00540.4028,W,1,00,00.00,0.0,M,0,M,0,*5d
$GPRMC,141736,A,5623.0566,N,00540.4028,W,000.0,000.0,130725,00,*3
$GPGGA,141741.4,5623.0670,N,00540.3989,W,1,00,00.00,0.0,M,0,M,0,*5b
$GPRMC,141741,A,5623.0670,N,00540.3989,W,000.0,000.0,130725,00,*2
$GPGGA,141746.3,5623.0708,N,00540.3917,W,1,00,00.00,0.0,M,0,M,0,*52
$GPRMC,141746,A,5623.0708,N,00540.3917,W,000.0,000.0,130725,00,*c
$GPGGA,141800.2,5623.0818,N,00540.3812,W,1,00,00.00,0.0,M,0,M,0,*54
$GPRMC,141800,A,5623.0818,N,00540.3812,W,000.0,000.0,130725,00,*b
$GPGGA,141805.0,5623.0874,N,00540.3762,W,1,00,00.00,0.0,M,0,M,0,*51
$GPRMC,141805,A,5623.0874,N,00540.3762,W,000.0,000.0,130725,00,*c
$GPGGA,141819.4,5623.0939,N,00540.3697,W,1,00,00.00,0.0,M,0,M,0,*5b
$GPRMC,141819,A,5623.0939,N,00540.3697,W,000.0,000.0,130725,00,*2
$GPGGA,141834.4,5623.0996,N,00540.3628,W,1,00,00.00,0.0,M,0,M,0,*55
$GPRMC,141834,A,5623.0996,N,00540.3628,W,000.0,000.0,130725,00,*c
$GPGGA,141844.3,5623.1054,N,00540.3551,W,1,00,00.00,0.0,M,0,M,0,*5e
$GPRMC,141844,A,5623.1054,N,00540.3551,W,000.0,000.0,130725,00,*0
$GPGGA,141859.3,5623.1102,N,00540.3490,W,1,00,00.00,0.0,M,0,M,0,*5c
$GPRMC,141859,A,5623.1102,N,00540.3490,W,000.0,000.0,130725,00,*2
$GPGGA,141924.3,5623.1179,N,00540.3363,W,1,00,00.00,0.0,M,0,M,0,*50
$GPRMC,141924,A,5623.1179,N,00540.3363,W,000.0,000.0,130725,00,*e
$GPGGA,141949.3,5623.1266,N,00540.3258,W,1,00,00.00,0.0,M,0,M,0,*5f
$GPRMC,141949,A,5623.1266,N,00540.3258,W,000.0,000.0,130725,00,*1
$GPGGA,141959.3,5623.1305,N,00540.3136,W,1,00,00.00,0.0,M,0,M,0,*51
$GPRMC,141959,A,5623.1305,N,00540.3136,W,000.0,000.0,130725,00,*f
$GPGGA,142009.3,5623.1338,N,00540.2967,W,1,00,00.00,0.0,M,0,M,0,*5d
$GPRMC,142009,A,5623.1338,N,00540.2967,W,000.0,000.0,130725,00,*3
$GPGGA,142014.3,5623.1354,N,00540.2872,W,1,00,00.00,0.0,M,0,M,0,*5e
$GPRMC,142014,A,5623.1354,N,00540.2872,W,000.0,000.0,130725,00,*0
$GPGGA,142019.3,5623.1354,N,00540.2771,W,1,00,00.00,0.0,M,0,M,0,*5f
$GPRMC,142019,A,5623.1354,N,00540.2771,W,000.0,000.0,130725,00,*1
$GPGGA,142024.3,5623.1352,N,00540.2660,W,1,00,00.00,0.0,M,0,M,0,*56
$GPRMC,142024,A,5623.1352,N,00540.2660,W,000.0,000.0,130725,00,*8
$GPGGA,142029.3,5623.1335,N,00540.2559,W,1,00,00.00,0.0,M,0,M,0,*53
$GPRMC,142029,A,5623.1335,N,00540.2559,W,000.0,000.0,130725,00,*d
$GPGGA,142034.3,5623.1306,N,00540.2450,W,1,00,00.00,0.0,M,0,M,0,*57
$GPRMC,142034,A,5623.1306,N,00540.2450,W,000.0,000.0,130725,00,*9
$GPGGA,142039.3,5623.1277,N,00540.2354,W,1,00,00.00,0.0,M,0,M,0,*5e
$GPRMC,142039,A,5623.1277,N,00540.2354,W,000.0,000.0,130725,00,*0
$GPGGA,142044.3,5623.1228,N,00540.2271,W,1,00,00.00,0.0,M,0,M,0,*58
$GPRMC,142044,A,5623.1228,N,00540.2271,W,000.0,000.0,130725,00,*6
$GPGGA,142049.3,5623.1153,N,00540.2187,W,1,00,00.00,0.0,M,0,M,0,*50
$GPRMC,142049,A,5623.1153,N,00540.2187,W,000.0,000.0,130725,00,*e
$GPGGA,142054.3,5623.1084,N,00540.2138,W,1,00,00.00,0.0,M,0,M,0,*53
$GPRMC,142054,A,5623.1084,N,00540.2138,W,000.0,000.0,130725,00,*d
$GPGGA,142059.3,5623.1012,N,00540.2125,W,1,00,00.00,0.0,M,0,M,0,*5d
$GPRMC,142059,A,5623.1012,N,00540.2125,W,000.0,000.0,130725,00,*3
$GPGGA,142104.3,5623.0943,N,00540.2140,W,1,00,00.00,0.0,M,0,M,0,*5b
$GPRMC,142104,A,5623.0943,N,00540.2140,W,000.0,000.0,130725,00,*5
$GPGGA,142109.3,5623.0870,N,00540.2183,W,1,00,00.00,0.0,M,0,M,0,*58
$GPRMC,142109,A,5623.0870,N,00540.2183,W,000.0,000.0,130725,00,*6
$GPGGA,142114.3,5623.0806,N,00540.2247,W,1,00,00.00,0.0,M,0,M,0,*5e
$GPRMC,142114,A,5623.0806,N,00540.2247,W,000.0,000.0,130725,00,*0
$GPGGA,142119.3,5623.0744,N,00540.2309,W,1,00,00.00,0.0,M,0,M,0,*51
$GPRMC,142119,A,5623.0744,N,00540.2309,W,000.0,000.0,130725,00,*f
$GPGGA,142124.3,5623.0684,N,00540.2399,W,1,00,00.00,0.0,M,0,M,0,*5b
$GPRMC,142124,A,5623.0684,N,00540.2399,W,000.0,000.0,130725,00,*5
$GPGGA,142129.3,5623.0624,N,00540.2484,W,1,00,00.00,0.0,M,0,M,0,*57
$GPRMC,142129,A,5623.0624,N,00540.2484,W,000.0,000.0,130725,00,*9
$GPGGA,142134.3,5623.0566,N,00540.2558,W,1,00,00.00,0.0,M,0,M,0,*5e
$GPRMC,142134,A,5623.0566,N,00540.2558,W,000.0,000.0,130725,00,*0
$GPGGA,142139.3,5623.0513,N,00540.2657,W,1,00,00.00,0.0,M,0,M,0,*5d
$GPRMC,142139,A,5623.0513,N,00540.2657,W,000.0,000.0,130725,00,*3
$GPGGA,142144.3,5623.0458,N,00540.2755,W,1,00,00.00,0.0,M,0,M,0,*5a
$GPRMC,142144,A,5623.0458,N,00540.2755,W,000.0,000.0,130725,00,*4
$GPGGA,142149.3,5623.0399,N,00540.2851,W,1,00,00.00,0.0,M,0,M,0,*56
$GPRMC,142149,A,5623.0399,N,00540.2851,W,000.0,000.0,130725,00,*8
$GPGGA,142154.3,5623.0337,N,00540.2939,W,1,00,00.00,0.0,M,0,M,0,*51
$GPRMC,142154,A,5623.0337,N,00540.2939,W,000.0,000.0,130725,00,*f
$GPGGA,142159.3,5623.0290,N,00540.3034,W,1,00,00.00,0.0,M,0,M,0,*55
$GPRMC,142159,A,5623.0290,N,00540.3034,W,000.0,000.0,130725,00,*b
$GPGGA,142204.3,5623.0238,N,00540.3141,W,1,00,00.00,0.0,M,0,M,0,*5f
$GPRMC,142204,A,5623.0238,N,00540.3141,W,000.0,000.0,130725,00,*1
$GPGGA,142209.3,5623.0184,N,00540.3250,W,1,00,00.00,0.0,M,0,M,0,*55
$GPRMC,142209,A,5623.0184,N,00540.3250,W,000.0,000.0,130725,00,*b
$GPGGA,142214.3,5623.0133,N,00540.3359,W,1,00,00.00,0.0,M,0,M,0,*5d
$GPRMC,142214,A,5623.0133,N,00540.3359,W,000.0,000.0,130725,00,*3
$GPGGA,142219.3,5623.0085,N,00540.3465,W,1,00,00.00,0.0,M,0,M,0,*54
$GPRMC,142219,A,5623.0085,N,00540.3465,W,000.0,000.0,130725,00,*a
$GPGGA,142224.3,5623.0045,N,00540.3581,W,1,00,00.00,0.0,M,0,M,0,*5d
$GPRMC,142224,A,5623.0045,N,00540.3581,W,000.0,000.0,130725,00,*3
$GPGGA,142229.3,5623.0003,N,00540.3708,W,1,00,00.00,0.0,M,0,M,0,*51
$GPRMC,142229,A,5623.0003,N,00540.3708,W,000.0,000.0,130725,00,*f
$GPGGA,142234.3,5622.9958,N,00540.3825,W,1,00,00.00,0.0,M,0,M,0,*52
$GPRMC,142234,A,5622.9958,N,00540.3825,W,000.0,000.0,130725,00,*c
$GPGGA,142239.3,5622.9914,N,00540.3942,W,1,00,00.00,0.0,M,0,M,0,*57
$GPRMC,142239,A,5622.9914,N,00540.3942,W,000.0,000.0,130725,00,*9
$GPGGA,142244.3,5622.9871,N,00540.4066,W,1,00,00.00,0.0,M,0,M,0,*57
$GPRMC,142244,A,5622.9871,N,00540.4066,W,000.0,000.0,130725,00,*9
$GPGGA,142249.3,5622.9827,N,00540.4188,W,1,00,00.00,0.0,M,0,M,0,*58
$GPRMC,142249,A,5622.9827,N,00540.4188,W,000.0,000.0,130725,00,*6
$GPGGA,142254.3,5622.9792,N,00540.4306,W,1,00,00.00,0.0,M,0,M,0,*51
$GPRMC,142254,A,5622.9792,N,00540.4306,W,000.0,000.0,130725,00,*f
$GPGGA,142259.3,5622.9751,N,00540.4427,W,1,00,00.00,0.0,M,0,M,0,*57
$GPRMC,142259,A,5622.9751,N,00540.4427,W,000.0,000.0,130725,00,*9
$GPGGA,142304.3,5622.9716,N,00540.4548,W,1,00,00.00,0.0,M,0,M,0,*55
$GPRMC,142304,A,5622.9716,N,00540.4548,W,000.0,000.0,130725,00,*b
$GPGGA,142309.3,5622.9682,N,00540.4685,W,1,00,00.00,0.0,M,0,M,0,*56
$GPRMC,142309,A,5622.9682,N,00540.4685,W,000.0,000.0,130725,00,*8
$GPGGA,142314.3,5622.9660,N,00540.4826,W,1,00,00.00,0.0,M,0,M,0,*51
$GPRMC,142314,A,5622.9660,N,00540.4826,W,000.0,000.0,130725,00,*f
$GPGGA,142319.3,5622.9629,N,00540.4969,W,1,00,00.00,0.0,M,0,M,0,*5b
$GPRMC,142319,A,5622.9629,N,00540.4969,W,000.0,000.0,130725,00,*5
$GPGGA,142324.3,5622.9597,N,00540.5104,W,1,00,00.00,0.0,M,0,M,0,*51
$GPRMC,142324,A,5622.9597,N,00540.5104,W,000.0,000.0,130725,00,*f
$GPGGA,142329.3,5622.9573,N,00540.5246,W,1,00,00.00,0.0,M,0,M,0,*53
$GPRMC,142329,A,5622.9573,N,00540.5246,W,000.0,000.0,130725,00,*d
$GPGGA,142334.3,5622.9556,N,00540.5387,W,1,00,00.00,0.0,M,0,M,0,*54
$GPRMC,142334,A,5622.9556,N,00540.5387,W,000.0,000.0,130725,00,*a
$GPGGA,142339.3,5622.9546,N,00540.5538,W,1,00,00.00,0.0,M,0,M,0,*5a
$GPRMC,142339,A,5622.9546,N,00540.5538,W,000.0,000.0,130725,00,*4
$GPGGA,142344.3,5622.9530,N,00540.5675,W,1,00,00.00,0.0,M,0,M,0,*5b
$GPRMC,142344,A,5622.9530,N,00540.5675,W,000.0,000.0,130725,00,*5
$GPGGA,142349.3,5622.9512,N,00540.5814,W,1,00,00.00,0.0,M,0,M,0,*5f
$GPRMC,142349,A,5622.9512,N,00540.5814,W,000.0,000.0,130725,00,*1
$GPGGA,142354.3,5622.9505,N,00540.5969,W,1,00,00.00,0.0,M,0,M,0,*5e
$GPRMC,142354,A,5622.9505,N,00540.5969,W,000.0,000.0,130725,00,*0
$GPGGA,142359.3,5622.9500,N,00540.6125,W,1,00,00.00,0.0,M,0,M,0,*55
$GPRMC,142359,A,5622.9500,N,00540.6125,W,000.0,000.0,130725,00,*b
$GPGGA,142404.3,5622.9493,N,00540.6268,W,1,00,00.00,0.0,M,0,M,0,*5b
$GPRMC,142404,A,5622.9493,N,00540.6268,W,000.0,000.0,130725,00,*5
$GPGGA,142409.3,5622.9489,N,00540.6404,W,1,00,00.00,0.0,M,0,M,0,*51
$GPRMC,142409,A,5622.9489,N,00540.6404,W,000.0,000.0,130725,00,*f
$GPGGA,142414.3,5622.9491,N,00540.6545,W,1,00,00.00,0.0,M,0,M,0,*50
$GPRMC,142414,A,5622.9491,N,00540.6545,W,000.0,000.0,130725,00,*e
$GPGGA,142419.3,5622.9487,N,00540.6683,W,1,00,00.00,0.0,M,0,M,0,*53
$GPRMC,142419,A,5622.9487,N,00540.6683,W,000.0,000.0,130725,00,*d
$GPGGA,142424.3,5622.9489,N,00540.6825,W,1,00,00.00,0.0,M,0,M,0,*51
$GPRMC,142424,A,5622.9489,N,00540.6825,W,000.0,000.0,130725,00,*f
$GPGGA,142429.3,5622.9486,N,00540.6957,W,1,00,00.00,0.0,M,0,M,0,*57
$GPRMC,142429,A,5622.9486,N,00540.6957,W,000.0,000.0,130725,00,*9
$GPGGA,142434.3,5622.9500,N,00540.7121,W,1,00,00.00,0.0,M,0,M,0,*5c
$GPRMC,142434,A,5622.9500,N,00540.7121,W,000.0,000.0,130725,00,*2
$GPGGA,142439.3,5622.9518,N,00540.7279,W,1,00,00.00,0.0,M,0,M,0,*56
$GPRMC,142439,A,5622.9518,N,00540.7279,W,000.0,000.0,130725,00,*8
$GPGGA,142444.3,5622.9535,N,00540.7429,W,1,00,00.00,0.0,M,0,M,0,*50
$GPRMC,142444,A,5622.9535,N,00540.7429,W,000.0,000.0,130725,00,*e
$GPGGA,142449.3,5622.9554,N,00540.7566,W,1,00,00.00,0.0,M,0,M,0,*50
$GPRMC,142449,A,5622.9554,N,00540.7566,W,000.0,000.0,130725,00,*e
$GPGGA,142454.3,5622.9571,N,00540.7695,W,1,00,00.00,0.0,M,0,M,0,*54
